name,lat,lon,country,pop
Tokyo,35.685,139.7514,Japan,35676000
New York,40.6943,-73.9249,United States,19354922
Mexico City,19.4424,-99.131,Mexico,19028000
Mumbai,19.017,72.857,India,18978000
Sao Paulo,-23.5587,-46.625,Brazil,18845000
Delhi,28.67,77.23,India,15926000
Shanghai,31.2165,121.4365,China,14987000
Kolkata,22.495,88.3247,India,14787000
Los Angeles,34.1139,-118.4068,United States,12815475
Dhaka,23.7231,90.4086,Bangladesh,12797394
Buenos Aires,-34.6025,-58.3975,Argentina,12795000
Karachi,24.87,66.99,Pakistan,12130000
Cairo,30.05,31.25,Egypt,11893000
Rio de Janeiro,-22.925,-43.225,Brazil,11748000
Osaka,34.75,135.4601,Japan,11294000
Beijing,39.9289,116.3883,China,11106000
Manila,14.6042,120.9822,Philippines,11100000
Moscow,55.7522,37.6155,Russia,10452000
Istanbul,41.105,29.01,Turkey,10061000
Paris,48.8667,2.3333,France,9904000
Seoul,37.5663,126.9997,"Korea, South",9796000
Lagos,6.4433,3.3915,Nigeria,9466000
Jakarta,-6.1744,106.8294,Indonesia,9125000
Guangzhou,23.145,113.325,China,8829000
Chicago,41.8373,-87.6861,United States,8675982
London,51.5,-0.1167,United Kingdom,8567000
Lima,-12.048,-77.0501,Peru,8012000
Tehran,35.6719,51.4243,Iran,7873000
Kinshasa,-4.3297,15.315,Congo (Kinshasa),7843000
Bogota,4.5964,-74.0833,Colombia,7772000
Shenzhen,22.5524,114.1221,China,7581000
Wuhan,30.58,114.27,China,7243000
Hong Kong,22.305,114.185,Hong Kong,7206000
Tianjin,39.13,117.2,China,7180000
Chennai,13.09,80.28,India,7163000
Taipei,25.0358,121.5683,Taiwan,6900273
Bangalore,12.97,77.56,India,6787000
Bangkok,13.75,100.5166,Thailand,6704000
Lahore,31.56,74.35,Pakistan,6577000
Chongqing,29.565,106.595,China,6461000
Miami,25.784,-80.2102,United States,6381966
Hyderabad,17.4,78.48,India,6376000
Dallas,32.7937,-96.7662,United States,5733259
Santiago,-33.45,-70.667,Chile,5720000
Philadelphia,40.0076,-75.134,United States,5637884
Belo Horizonte,-19.915,-43.915,Brazil,5575000
Madrid,40.4,-3.6834,Spain,5567000
Houston,29.7868,-95.3905,United States,5446468
Ahmedabad,23.0301,72.58,India,5375000
Ho Chi Minh City,10.78,106.695,Vietnam,5314000
Washington,38.9047,-77.0163,United States,5289420
Atlanta,33.7626,-84.4228,United States,5228750
Toronto,43.7,-79.42,Canada,5213000
Singapore,1.293,103.8558,Singapore,5183700
Luanda,-8.8383,13.2344,Angola,5172900
Baghdad,33.3386,44.3939,Iraq,5054000
Barcelona,41.3833,2.1834,Spain,4920000
Haora,22.5804,88.3299,India,4841638
Shenyeng,41.805,123.45,China,4787000
Khartoum,15.5881,32.5342,Sudan,4754000
Pune,18.53,73.85,India,4672000
Boston,42.3188,-71.0846,United States,4637537
Sydney,-33.92,151.1852,Australia,4630000
St. Petersburg,59.939,30.316,Russia,4553000
Chittagong,22.33,91.8,Bangladesh,4529000
Dongguan,23.0489,113.7447,China,4528000
Riyadh,24.6408,46.7727,Saudi Arabia,4465000
Hanoi,21.0333,105.85,Vietnam,4378000
Guadalajara,20.67,-103.33,Mexico,4198000
Melbourne,-37.82,144.975,Australia,4170000
Alexandria,31.2,29.95,Egypt,4165000
Chengdu,30.67,104.07,China,4123000
Rangoon,16.7834,96.1667,Burma,4088000
Phoenix,33.5722,-112.0891,United States,4081849
Xian,34.275,108.895,China,4009000
Porto Alegre,-30.05,-51.2,Brazil,3917000
Surat,21.2,72.84,India,3842000
Hechi,23.0965,109.6091,China,3830000
Abidjan,5.32,-4.04,Côte D’Ivoire,3802000
Brasilia,-15.7833,-47.9161,Brazil,3716996
Ankara,39.9272,32.8644,Turkey,3716000
Monterrey,25.67,-100.33,Mexico,3712000
Yokohama,35.32,139.58,Japan,3697894
Nanjing,32.05,118.78,China,3679000
Montreal,45.5,-73.5833,Canada,3678000
Guiyang,26.58,106.72,China,3662000
Recife,-8.0756,-34.9156,Brazil,3651000
Seattle,47.6211,-122.3244,United States,3643765
Harbin,45.75,126.65,China,3621000
San Francisco,37.7562,-122.443,United States,3603761
Fortaleza,-3.75,-38.58,Brazil,3602319
Zhangzhou,24.5204,117.67,China,3531147
Detroit,42.3834,-83.1024,United States,3522206
Salvador,-12.97,-38.48,Brazil,3484000
Busan,35.0951,129.01,"Korea, South",3480000
Johannesburg,-26.17,28.03,South Africa,3435000
Berlin,52.5218,13.4015,Germany,3406000
Algiers,36.7631,3.0506,Algeria,3354000
Rome,41.896,12.4833,Italy,3339000
Pyongyang,39.0194,125.7547,"Korea, North",3300000
Medellin,6.275,-75.575,Colombia,3297000
Kabul,34.5167,69.1833,Afghanistan,3277000
Athens,37.9833,23.7333,Greece,3242000
Nagoya,35.155,136.915,Japan,3230000
Cape Town,-33.92,18.435,South Africa,3215000
San Diego,32.8312,-117.1226,United States,3210314
Changchun,43.865,125.34,China,3183000
Casablanca,33.6,-7.6164,Morocco,3181000
Dalian,38.9228,121.6298,China,3167000
Kanpur,26.46,80.32,India,3162000
Kano,12,8.52,Nigeria,3140000
Tel Aviv-Yafo,32.08,34.77,Israel,3112000
Addis Ababa,9.0333,38.7,Ethiopia,3100000
Curitiba,-25.42,-49.32,Brazil,3084000
Zibo,36.8,118.05,China,3061000
Jeddah,21.5169,39.2192,Saudi Arabia,3012000
Nairobi,-1.2833,36.8167,Kenya,3010000
Hangzhou,30.25,120.17,China,3007000
Benoni,-26.1496,28.3299,South Africa,2986000
Caracas,10.501,-66.917,Venezuela,2985000
Milan,45.47,9.205,Italy,2945000
Stuttgart,48.78,9.2,Germany,2944700
Kunming,25.07,102.68,China,2931000
Dar es Salaam,-6.8,39.2683,Tanzania,2930000
Minneapolis,44.9635,-93.2678,United States,2926757
Jaipur,26.9211,75.81,India,2917000
Taiyuan,37.875,112.5451,China,2913000
Frankfurt,50.1,8.675,Germany,2895000
Qingdao,36.09,120.33,China,2866000
Surabaya,-7.2492,112.7508,Indonesia,2845000
Lisbon,38.7227,-9.1449,Portugal,2812000
Tampa,27.9937,-82.4454,United States,2804240
Jinan,36.675,116.995,China,2798000
Fukuoka,33.595,130.41,Japan,2792000
Campinas,-22.9,-47.1,Brazil,2791000
Denver,39.7621,-104.8759,United States,2787266
Kaohsiung,22.6333,120.2666,Taiwan,2769072
Quezon City,14.6504,121.03,Philippines,2761720
Katowice,50.2604,19.02,Poland,2746000
Aleppo,36.23,37.17,Syria,2738000
Durban,-29.865,30.98,South Africa,2729000
Kiev,50.4334,30.5166,Ukraine,2709000
Lucknow,26.855,80.915,India,2695000
El Giza,30.01,31.19,Egypt,2681863
Zhengzhou,34.755,113.6651,China,2636000
Taichung,24.1521,120.6817,Taiwan,2629323
Brooklyn,40.6501,-73.9496,United States,2629150
Ibadan,7.38,3.93,Nigeria,2628000
Faisalabad,31.41,73.11,Pakistan,2617000
Fuzhou,26.08,119.3,China,2606000
Dakar,14.7158,-17.4731,Senegal,2604000
Changsha,28.2,112.97,China,2604000
Izmir,38.4361,27.1518,Turkey,2587000
Xiangtan,27.8504,112.9,China,2586948
Lanzhou,36.056,103.792,China,2561000
Incheon,37.4761,126.6422,"Korea, South",2550000
Sapporo,43.075,141.34,Japan,2544000
Xiamen,24.45,118.08,China,2519000
Guayaquil,-2.22,-79.92,Ecuador,2514000
George Town,5.4136,100.3294,Malaysia,2500000
Mashhad,36.27,59.57,Iran,2469000
Damascus,33.5,36.3,Syria,2466000
Daegu,35.8668,128.607,"Korea, South",2460000
Nagpur,21.17,79.09,India,2454000
Jinxi,40.7503,120.83,China,2426000
Shijianzhuang,38.05,114.48,China,2417000
Tunis,36.8028,10.1797,Tunisia,2412500
Vienna,48.2,16.3666,Austria,2400000
Jilin,43.85,126.55,China,2396000
Omdurman,15.6167,32.48,Sudan,2395159
Bandung,-6.95,107.57,Indonesia,2394000
Bekasi,-6.2173,106.9723,Indonesia,2378211
Mannheim,49.5004,8.47,Germany,2362000
Nanchang,28.68,115.88,China,2350000
Wenzhou,28.02,120.6501,China,2350000
Queens,40.7498,-73.7976,United States,2333054
Vancouver,49.2734,-123.1216,Canada,2313328
Birmingham,52.475,-1.92,United Kingdom,2285000
Cali,3.4,-76.5,Colombia,2254000
Naples,40.84,14.245,Italy,2250000
Sendai,38.2871,141.0217,Japan,2250000
Manchester,53.5004,-2.248,United Kingdom,2230000
Puebla,19.05,-98.2,Mexico,2195000
Tripoli,32.8925,13.18,Libya,2189000
Tashkent,41.3117,69.2949,Uzbekistan,2184000
Nanchong,30.7804,106.13,China,2174000
Havana,23.132,-82.3642,Cuba,2174000
Baltimore,39.3051,-76.6144,United States,2170504
Belem,-1.45,-48.48,Brazil,2167000
Nanning,22.82,108.32,China,2167000
Patna,25.625,85.13,India,2158000
Santo Domingo,18.4701,-69.9001,Dominican Republic,2154000
Urumqi,43.805,87.575,China,2151000
Zaozhuang,34.88,117.57,China,2145000
Baku,40.3953,49.8622,Azerbaijan,2122300
Accra,5.55,-0.2167,Ghana,2121000
Yantai,37.5304,121.4,China,2116000
Medan,3.58,98.65,Indonesia,2115000
Santa Cruz,-17.7539,-63.226,Bolivia,2102998
Xuzhou,34.28,117.18,China,2091000
Riverside,33.9381,-117.3948,United States,2084749
Linyi,35.08,118.33,China,2082000
Saint Louis,38.6358,-90.2451,United States,2078283
Las Vegas,36.2291,-115.2607,United States,2073045
Maracaibo,10.73,-71.66,Venezuela,2072000
Kuwait,29.3697,47.9783,Kuwait,2063000
Ad Damman,26.4282,50.0997,Saudi Arabia,2054710
Portland,45.5372,-122.65,United States,2052796
Haikou,20.05,110.32,China,2046189
Hiroshima,34.3878,132.4429,Japan,2045000
Baotou,40.6522,109.822,China,2036000
Hefei,31.85,117.28,China,2035000
Indore,22.7151,75.865,India,2026000
Goiania,-16.72,-49.3,Brazil,2022000
Sanaa,15.3547,44.2066,Yemen,2008000
San Antonio,29.4722,-98.5247,United States,2002530
Port-au-Prince,18.541,-72.336,Haiti,1998000
Haiphong,20.83,106.6801,Vietnam,1969000
Suzhou,33.6361,116.9789,China,1964000
Nanyang,33.0004,112.53,China,1944000
Bucharest,44.4334,26.0999,Romania,1942000
Ningbo,29.88,121.55,China,1923000
Douala,4.0604,9.71,Cameroon,1906000
Tangshan,39.6243,118.1944,China,1879000
Tainan,23,120.2,Taiwan,1876312
Datong,40.08,113.3,China,1873000
Asuncion,-25.2964,-57.6415,Paraguay,1870000
Saidu,34.75,72.35,Pakistan,1860310
Brisbane,-27.455,153.0351,Australia,1860000
Rawalpindi,33.6,73.04,Pakistan,1858000
Sacramento,38.5667,-121.4683,United States,1854698
Beirut,33.872,35.5097,Lebanon,1846000
San Jose,37.3018,-121.8485,United States,1821899
Minsk,53.9,27.5666,Belarus,1805000
Kyoto,35.03,135.75,Japan,1805000
Barranquilla,10.96,-74.8,Colombia,1798000
Orlando,28.4788,-81.342,United States,1776841
Valencia,10.23,-67.98,Venezuela,1770000
Shuyang,34.1299,118.7734,China,1770000
Hamburg,53.55,10,Germany,1757000
Vadodara,22.31,73.18,India,1756000
Manaus,-3.1,-60,Brazil,1753000
Shangqiu,34.4504,115.65,China,1753000
Wuxi,31.58,120.3,China,1749000
Palembang,-2.98,104.75,Indonesia,1749000
Brussels,50.8333,4.3333,Belgium,1743000
Essen,51.45,7.0166,Germany,1742135
Cleveland,41.4767,-81.6805,United States,1730363
Bhopal,23.25,77.41,India,1727000
Hohhot,40.82,111.66,China,1726000
Pittsburgh,40.4396,-79.9763,United States,1715297
Luoyang,34.68,112.4701,China,1715000
Santos,-23.9537,-46.3329,Brazil,1709000
Jianmen,30.6501,113.16,China,1708000
Warsaw,52.25,21,Poland,1707000
Rabat,34.0253,-6.8361,Morocco,1705000
Vitoria,-20.324,-40.366,Brazil,1704000
Quito,-0.215,-78.5001,Ecuador,1701000
Antananarivo,-18.9166,47.5166,Madagascar,1697000
Coimbatore,11,76.95,India,1696000
Daqing,46.58,125,China,1693000
Luan,31.7503,116.48,China,1690000
Wanzhou,30.82,108.4,China,1680000
Budapest,47.5,19.0833,Hungary,1679000
Turin,45.0704,7.67,Italy,1652000
Suzhou,31.3005,120.62,China,1650000
Ludhiana,30.9278,75.8723,India,1649000
Cincinnati,39.1412,-84.5059,United States,1648254
Kumasi,6.69,-1.63,Ghana,1646000
Manhattan,40.7834,-73.9662,United States,1643734
Qiqihar,47.345,123.99,China,1641000
Anshan,41.115,122.94,China,1639000
Austin,30.3006,-97.7517,United States,1638716
Zhongli,24.965,121.2168,Taiwan,1632616
Handan,36.58,114.48,China,1631000
Taian,36.2,117.1201,China,1629000
Isfahan,32.7,51.7,Iran,1628000
Kansas City,39.1239,-94.5541,United States,1615621
Yaounde,3.8667,11.5167,Cameroon,1611000
Shantou,23.37,116.67,China,1601000
Agra,27.1704,78.015,India,1592000
La Paz,-16.498,-68.15,Bolivia,1590000
Zhanjiang,21.2,110.38,China,1590000
Kalyan,19.2502,73.1602,India,1576614
Abuja,9.0833,7.5333,Nigeria,1576000
Harare,-17.8178,31.0447,Zimbabwe,1572000
Indianapolis,39.7771,-86.1458,United States,1564699
Xiantao,30.3704,113.44,China,1556000
Tijuana,32.5,-117.08,Mexico,1553000
Khulna,22.84,89.56,Bangladesh,1553000
Weifang,36.7204,119.1001,China,1553000
Santiago,19.5,-70.67,Dominican Republic,1550753
Xinyang,32.1304,114.07,China,1541000
Luzhou,28.88,105.38,China,1537000
Perth,-31.955,115.84,Australia,1532000
Toluca,19.3304,-99.67,Mexico,1531000
Leeds,53.83,-1.58,United Kingdom,1529000
Vishakhapatnam,17.73,83.305,India,1529000
Kobe,34.68,135.17,Japan,1528478
Columbus,39.986,-82.9852,United States,1528314
Multan,30.2,71.455,Pakistan,1522000
Kochi,10.015,76.2239,India,1519000
Gujranwala,32.1604,74.185,Pakistan,1513000
Montevideo,-34.858,-56.1711,Uruguay,1513000
Niteroi,-22.9,-43.1,Brazil,1500513
Ganzhou,25.92,114.95,China,1500000
Florence,43.78,11.25,Italy,1500000
Liuzhou,24.28,109.25,China,1497000
Bamako,12.65,-8,Mali,1494000
Conakry,9.5315,-13.6802,Guinea,1494000
Bursa,40.2,29.07,Turkey,1492000
Leon,21.15,-101.7,Mexico,1488000
Virginia Beach,36.7335,-76.0435,United States,1480383
Nasik,20.0004,73.78,India,1473000
Fushun,41.8654,123.87,China,1470000
Changde,29.03,111.68,China,1469000
Daejeon,36.3355,127.425,"Korea, South",1468000
Charlotte,35.2079,-80.8303,United States,1467362
Neijiang,29.5804,105.05,China,1466000
Phnom Penh,11.55,104.9166,Cambodia,1466000
Quanzhou,24.9,118.58,China,1463000
Kharkiv,50,36.25,Ukraine,1461000
Hyderabad,25.38,68.375,Pakistan,1459000
Bronx,40.8501,-73.8662,United States,1455720
Lome,6.1319,1.2228,Togo,1452000
Cordoba,-31.4,-64.1823,Argentina,1452000
Huainan,32.63,116.98,China,1451000
Doha,25.2866,51.533,Qatar,1450000
Kuala Lumpur,3.1667,101.7,Malaysia,1448000
Maputo,-25.9553,32.5892,Mozambique,1446000
Kaduna,10.52,7.44,Nigeria,1442000
Gwangju,35.171,126.9104,"Korea, South",1440000
Kawasaki,35.53,139.705,Japan,1437266
San Salvador,13.71,-89.203,El Salvador,1433000
Suining,30.5333,105.5333,China,1425000
Lyon,45.77,4.83,France,1423000
Karaj,35.8004,50.97,Iran,1423000
Kampala,0.3167,32.5833,Uganda,1420000
Tabriz,38.0863,46.3012,Iran,1413000
The Hague,52.08,4.27,Netherlands,1406000
Davao,7.11,125.63,Philippines,1402000
Marseille,43.29,5.375,France,1400000
Meerut,29.0004,77.7,India,1398000
Mianyang,31.47,104.77,China,1396000
Semarang,-6.9666,110.42,Indonesia,1396000
Faridabad,28.4333,77.3167,India,1394000
Novosibirsk,55.03,82.96,Russia,1389000
Makkah,21.43,39.82,Saudi Arabia,1385000
Dubai,25.23,55.28,United Arab Emirates,1379000
Milwaukee,43.064,-87.9669,United States,1377808
Auckland,-36.8481,174.763,New Zealand,1377200
Maanshan,31.7304,118.48,China,1366302
Brazzaville,-4.2592,15.2847,Congo (Brazzaville),1355000
Lubumbashi,-11.68,27.48,Congo (Kinshasa),1352000
Yiyang,28.6004,112.33,China,1352000
Varanasi,25.33,83,India,1352000
Ciudad Juarez,31.6904,-106.49,Mexico,1343000
Ghaziabad,28.6604,77.4084,India,1341000
Pretoria,-25.7069,28.2294,South Africa,1338000
Heze,35.23,115.45,China,1338000
Porto,41.15,-8.62,Portugal,1337000
Lusaka,-15.4166,28.2833,Zambia,1328000
Asansol,23.6833,86.9833,India,1328000
Changzhou,31.78,119.97,China,1327000
Mosul,36.345,43.145,Iraq,1316000
Yekaterinburg,56.85,60.6,Russia,1313000
Peshawar,34.005,71.535,Pakistan,1303000
Mandalay,21.97,96.085,Burma,1300000
Jamshedpur,22.7875,86.1975,India,1300000
Mbuji-Mayi,-6.15,23.6,Congo (Kinshasa),1295000
Madurai,9.92,78.12,India,1294000
Adana,36.995,35.32,Turkey,1293000
Sheffield,53.3667,-1.5,United Kingdom,1292900
Jabalpur,23.1751,79.9551,India,1285000
San Jose,9.935,-84.0841,Costa Rica,1284000
Panama City,8.968,-79.533,Panama,1281000
Nizhny Novgorod,56.333,44.0001,Russia,1278000
Chifeng,42.27,118.95,China,1277000
Duisburg,51.43,6.75,Germany,1276757
Munich,48.1299,11.575,Germany,1275000
Stockholm,59.3508,18.0973,Sweden,1264000
Huaiyin,33.58,119.03,China,1264000
Ujungpandang,-5.14,119.432,Indonesia,1262000
Rajkot,22.31,70.8,India,1260000
Dhanbad,23.8004,86.42,India,1246000
Mudangiang,44.575,129.59,China,1244000
Geneva,46.21,6.14,Switzerland,1240000
Shiraz,29.63,52.57,Iran,1240000
Huzhou,30.8704,120.1,China,1231000
Tianshui,34.6,105.92,China,1225000
Lupanshui,26.5944,104.8333,China,1221000
Dusseldorf,51.2204,6.78,Germany,1220000
Maoming,21.9204,110.87,China,1217715
Seville,37.405,-5.98,Spain,1212045
Amritsar,31.64,74.87,India,1212000
Vila Velha,-20.3676,-40.318,Brazil,1209091
Vila Velha,3.2167,-51.2167,Brazil,1209091
Almaty,43.325,76.915,Kazakhstan,1209000
Providence,41.8229,-71.4186,United States,1206642
Warangal,18.01,79.58,India,1203853
Rosario,-32.9511,-60.6663,Argentina,1203000
Allahabad,25.455,81.84,India,1201000
Benin City,6.3405,5.62,Nigeria,1190000
Maceio,-9.62,-35.73,Brazil,1186000
Jining,35.4004,116.55,China,1186000
Sofia,42.6833,23.3167,Bulgaria,1185000
Abbottabad,34.1495,73.1995,Pakistan,1183647
Banghazi,32.1167,20.0667,Libya,1180000
Cilacap,-7.7188,109.0154,Indonesia,1174964
Prague,50.0833,14.466,Czechia,1162000
Glasgow,55.8744,-4.2507,United Kingdom,1160000
Leshan,29.5671,103.7333,China,1157000
Jacksonville,30.3322,-81.6749,United States,1156291
Ouagadougou,12.3703,-1.5247,Burkina Faso,1149000
Adelaide,-34.935,138.6,Australia,1145000
Ottawa,45.4167,-75.7,Canada,1145000
Shangrao,28.4704,117.97,China,1144577
Torreon,25.5701,-103.42,Mexico,1144000
Srinagar,34.1,74.815,India,1140000
Samara,53.195,50.1513,Russia,1137000
Vijayawada,16.52,80.63,India,1137000
Omsk,54.99,73.4,Russia,1135000
Newcastle,-32.8453,151.815,Australia,1134616
Yulin,22.63,110.15,China,1127000
Nampo,38.7669,125.4524,"Korea, North",1127000
Xianyang,34.3456,108.7147,China,1126000
Cagayan de Oro,8.4508,124.6853,Philippines,1121561
Can Tho,10.05,105.77,Vietnam,1121000
Barquisimeto,10.05,-69.3,Venezuela,1116000
Kazan,55.7499,49.1263,Russia,1115000
Helsinki,60.1756,24.9341,Finland,1115000
Aurangabad,19.8957,75.3203,India,1113000
Calgary,51.083,-114.08,Canada,1110000
Nezahualcoyotl,19.41,-99.03,Mexico,1109363
Zurich,47.38,8.55,Switzerland,1108000
Baoding,38.8704,115.48,China,1107000
Zigong,29.4,104.78,China,1105000
Sharjah,25.3714,55.4065,United Arab Emirates,1103027
Yerevan,40.1812,44.5136,Armenia,1102000
Mogadishu,2.0667,45.3667,Somalia,1100000
Huambo,-12.75,15.76,Angola,1100000
Ankang,32.68,109.02,China,1100000
Tbilisi,41.725,44.7908,Georgia,1100000
Ikare,7.5304,5.76,Nigeria,1099931
Belgrade,44.8186,20.468,Serbia,1099000
Salt Lake City,40.7774,-111.9301,United States,1098400
Bhilai,21.2167,81.4333,India,1097000
Jinhua,29.12,119.65,China,1092852
Chelyabinsk,55.155,61.4387,Russia,1091000
Natal,-5.78,-35.24,Brazil,1088000
Dushanbe,38.56,68.7739,Tajikistan,1086244
Kobenhavn,55.6786,12.5635,Denmark,1085000
Changwon,35.2191,128.5836,"Korea, South",1081499
Zhuzhou,27.83,113.15,China,1080000
Suwon,37.2578,127.0109,"Korea, South",1078000
Nashville,36.1714,-86.7844,United States,1076645
Vereeniging,-26.6496,27.96,South Africa,1074000
Xiangfan,32.02,112.13,China,1069000
Memphis,35.1047,-89.9773,United States,1068873
Ulsan,35.5467,129.317,"Korea, South",1061000
Zhucheng,35.99,119.3801,China,1060000
Amman,31.95,35.9333,Jordan,1060000
Richmond,37.5295,-77.4756,United States,1059907
Dublin,53.3331,-6.2489,Ireland,1059000
Edmonton,53.55,-113.5,Canada,1058000
Sholapur,17.6704,75.9,India,1057000
Rostov,47.2346,39.7127,Russia,1052000
Dnipro,48.48,35,Ukraine,1050000
Xining,36.62,101.77,China,1048000
Zhangjiakou,40.83,114.93,China,1046000
Gaziantep,37.075,37.385,Turkey,1044000
Lille,50.65,3.08,France,1044000
Ranchi,23.37,85.33,India,1044000
Monrovia,6.3106,-10.8048,Liberia,1041000
Sao Luis,-2.516,-44.266,Brazil,1038000
Amsterdam,52.35,4.9166,Netherlands,1031000
Jerusalem,31.7784,35.2066,Israel,1029300
New Orleans,30.0687,-89.9288,United States,1029123
Guatemala,14.6211,-90.527,Guatemala,1024000
Florianopolis,-27.58,-48.52,Brazil,1023000
Zhuhai,22.2769,113.5678,China,1023000
Port Elizabeth,-33.97,25.6,South Africa,1021000
Port Harcourt,4.81,7.01,Nigeria,1020000
Jiamusi,46.83,130.35,China,1020000
Raleigh,35.8323,-78.6439,United States,1018336
Ufa,54.79,56.04,Russia,1018000
Hengyang,26.88,112.59,China,1016000
Benxi,41.3304,123.75,China,1012000
Louisville,38.1662,-85.6488,United States,1011696
Haifa,32.8204,34.98,Israel,1011000
Medina,24.5,39.58,Saudi Arabia,1010000
Bucaramanga,7.1301,-73.1259,Colombia,1009000
Maracay,10.2469,-67.5958,Venezuela,1007000
Rotterdam,51.92,4.48,Netherlands,1005000
Hims,34.73,36.72,Syria,1005000
Cologne,50.93,6.95,Germany,1004000
Qinhuangdao,39.9304,119.62,China,1003000
Fez,34.0546,-5.0004,Morocco,1002000
Aden,12.7797,45.0095,Yemen,1000000
Da Nang,16.06,108.25,Vietnam,1000000
Cochabamba,-17.41,-66.17,Bolivia,1000000
Yongzhou,26.2304,111.62,China,1000000
Baoshan,25.12,99.15,China,1000000
Kitakyushu,33.8704,130.82,Japan,997536
Perm,58,56.25,Russia,997000
Ahvaz,31.28,48.72,Iran,996000
Jodhpur,26.2918,73.0168,India,995000
San Luis Potosi,22.17,-101,Mexico,992000
Odessa,46.49,30.71,Ukraine,991000
Yinchuan,38.468,106.273,China,991000
Ndjamena,12.1131,15.0491,Chad,989000
Donetsk,48,37.83,Ukraine,988000
Joinville,-26.32,-48.8399,Brazil,988000
Jiaxing,30.7704,120.75,China,988000
Guilin,25.28,110.28,China,987000
Dahuk,36.8667,43,Iraq,986000
Volgograd,48.71,44.5,Russia,984000
Guwahati,26.16,91.77,India,983000
Yichun,27.8333,114.4,China,982000
Yangquan,37.87,113.57,China,981448
Natal,-6.9838,-60.2699,Brazil,980588
Chandigarh,30.72,76.78,India,979000
Gwalior,26.23,78.1801,India,978000
Hamamatsu,34.7181,137.7327,Japan,977023
Qom,34.65,50.95,Iran,973000
Merida,20.9666,-89.6166,Mexico,965000
Jixi,45.3,130.97,China,965000
Xinyi,34.38,118.35,China,962656
Queretaro,20.63,-100.38,Mexico,961000
Pingxiang,27.62,113.85,China,961000
Kelang,3.0204,101.55,Malaysia,956000
Joao Pessoa,-7.1011,-34.8761,Brazil,956000
Jinzhou,41.1204,121.1,China,956000
Oklahoma City,35.4676,-97.5136,United States,955998
Salerno,40.6804,14.7699,Italy,954265
Thiruvananthapuram,8.5,76.95,India,954000
Kozhikode,11.2504,75.77,India,953000
Ogbomosho,8.13,4.24,Nigeria,951000
Tiruchirappalli,10.81,78.69,India,951000
General Santos,6.1108,125.1747,Philippines,950530
Hue,16.47,107.58,Vietnam,950000
Bacolod,10.6317,122.9817,Philippines,949354
Nantong,32.0304,120.825,China,947000
Tegucigalpa,14.102,-87.2175,Honduras,946000
Foshan,23.0301,113.12,China,943000
Songnam,37.4386,127.1378,"Korea, South",942000
Bridgeport,41.1909,-73.1958,United States,938406
Kingston,17.9771,-76.7674,Jamaica,937700
Naypyidaw,19.7666,96.1186,Burma,930000
Nice,43.715,7.265,France,927000
Buffalo,42.9017,-78.8487,United States,926261
Irbil,36.179,44.0086,Iraq,926000
Krasnoyarsk,56.014,92.866,Russia,925000
Djibouti,11.595,43.148,Djibouti,923000
Olinda,-8,-34.85,Brazil,921840
Managua,12.153,-86.2685,Nicaragua,920000
Antwerpen,51.2204,4.415,Belgium,920000
Konya,37.875,32.475,Turkey,919000
Bogor,-6.57,106.75,Indonesia,918000
Niamey,13.5167,2.1167,Niger,915000
Hartford,41.7661,-72.6834,United States,914751
Xinyu,27.8,114.93,China,913000
Huaibei,33.9504,116.75,China,913000
Teresina,-5.095,-42.78,Brazil,907000
Naha,26.2072,127.673,Japan,905238
Xinxiang,35.3204,113.87,China,903000
Goyang,37.6527,126.8372,"Korea, South",903000
Yibin,28.77,104.57,China,902000
Aba,5.1004,7.35,Nigeria,897560
Maiduguri,11.85,13.16,Nigeria,896000
Tirana,41.3275,19.8189,Albania,895350
Kathmandu,27.7167,85.3166,Nepal,895000
Az Zarqa,32.07,36.1,Jordan,894691
Tarsus,36.9204,34.88,Turkey,894318
Bengbu,32.95,117.33,China,894000
Mendoza,-32.8833,-68.8166,Argentina,893000
Hubli,15.36,75.125,India,890000
Concepcion,-36.83,-73.05,Chile,889725
Zaria,11.08,7.71,Nigeria,889000
Anyang,36.08,114.35,China,887000
Cartagena,10.3997,-75.5144,Colombia,887000
Mysore,12.31,76.66,India,887000
Ulaanbaatar,47.9167,106.9166,Mongolia,885000
Mexicali,32.65,-115.48,Mexico,885000
Tongliao,43.62,122.27,China,884000
Newcastle,55.0004,-1.6,United Kingdom,882000
Mombasa,-4.04,39.6899,Kenya,882000
Novo Hamburgo,-29.7096,-51.14,Brazil,876990
Callao,-12.07,-77.135,Peru,876877
Bilbao,43.25,-2.93,Spain,875552
Johor Bahru,1.48,103.73,Malaysia,875000
Yichang,30.7,111.28,China,875000
Raipur,21.235,81.635,India,875000
Fort Worth,32.7814,-97.3473,United States,874168
Salem,11.67,78.1801,India,873000
Yangjiang,21.8504,111.97,China,872363
Marrakesh,31.63,-8,Morocco,872000
Kaifeng,34.85,114.35,China,872000
Dandong,40.1436,124.3936,China,870000
Basra,30.5135,47.8136,Iraq,870000
Aguascalientes,21.8795,-102.2904,Mexico,869000
Tucson,32.1546,-110.8782,United States,868391
Okayama,34.672,133.9171,Japan,866092
Xuanzhou,30.9525,118.7553,China,866000
Puch'on,37.4989,126.7831,"Korea, South",866000
Rizhao,35.4304,119.45,China,865000
Bandar Lampung,-5.43,105.27,Indonesia,865000
Palermo,38.125,13.35,Italy,863000
Cardiff,51.5,-3.225,United Kingdom,861400
Kigali,-1.9536,30.0605,Rwanda,860000
Tampico,22.3,-97.87,Mexico,859419
Jiaozuo,35.25,113.22,China,857000
Padang,-0.96,100.36,Indonesia,855000
Jullundur,31.3349,75.569,India,855000
Valparaiso,-33.0478,-71.621,Chile,854000
Zhenjiang,32.22,119.43,China,854000
Zunyi,27.7,106.92,China,849000
Anshun,26.2504,105.93,China,849000
Pingdingshan,33.7304,113.3,China,849000
Toulouse,43.62,1.4499,France,847000
El Paso,31.8479,-106.4309,United States,845674
Nova Iguacu,-22.74,-43.47,Brazil,844583
Voronezh,51.73,39.27,Russia,844000
Bhubaneshwar,20.2704,85.8274,India,844000
Saratov,51.58,46.03,Russia,843000
Yuci,37.6804,112.73,China,840000
Yancheng,33.3856,120.1253,China,839000
Bishkek,42.8731,74.5852,Kyrgyzstan,837000
Oslo,59.9167,10.75,Norway,835000
Cuernavaca,18.9211,-99.24,Mexico,834001
Linfen,36.0803,111.52,China,834000
Honolulu,21.3294,-157.846,United States,833671
Bangui,4.3666,18.5583,Central African Republic,831925
Warri,5.52,5.76,Nigeria,830106
Tucuman,-26.816,-65.2166,Argentina,830000
Basel,47.5804,7.59,Switzerland,830000
Kermanshah,34.38,47.06,Iran,828313
Thessaloniki,40.6961,22.885,Greece,828000
Omaha,41.2628,-96.0495,United States,827786
Freetown,8.47,-13.2342,Sierra Leone,827000
Kota,25.18,75.835,India,827000
Braga,41.555,-8.4213,Portugal,826833
Jhansi,25.453,78.5575,India,826494
Yueyang,29.3801,113.1,China,826000
Nottingham,52.9703,-1.17,United Kingdom,825600
Agadir,30.44,-9.62,Morocco,825467
Butterworth,5.4171,100.4,Malaysia,821652
Bareilly,28.3454,79.42,India,817000
Jos,9.93,8.89,Nigeria,816824
Xingyi,25.0904,104.89,China,816000
Arequipa,-16.42,-71.53,Peru,815000
Cebu,10.32,123.9001,Philippines,815000
Liverpool,53.416,-2.918,United Kingdom,811000
Rajshahi,24.375,88.605,Bangladesh,810000
Langfang,39.5204,116.68,China,810000
Wuhu,31.3504,118.37,China,810000
Culiacan,24.83,-107.38,Mexico,809000
Zhaotang,27.3204,103.72,China,809000
Valencia,39.485,-0.4,Spain,808000
Cuiaba,-15.5696,-56.085,Brazil,806000
Lingyuan,41.24,119.4011,China,806000
Qui Nhon,13.78,109.18,Vietnam,805290
Malang,-7.98,112.61,Indonesia,805000
Aligarh,27.8922,78.0618,India,805000
Lvov,49.835,24.03,Ukraine,803880
Bordeaux,44.85,-0.595,France,803000
McAllen,26.2325,-98.2467,United States,800904
Baoji,34.38,107.15,China,800000
Pekanbaru,0.565,101.425,Indonesia,799000
Oran,35.71,-0.62,Algeria,798000
Yingkow,40.6703,122.28,China,795000
Bhiwandi,19.35,73.13,India,795000
Liaoyang,41.28,123.18,China,794000
Chihuahua,28.645,-106.085,Mexico,793000
Jammu,32.7118,74.8467,India,791000
Malacca,2.2064,102.2465,Malaysia,788706
Zaporizhzhya,47.8573,35.1768,Ukraine,788000
Moradabad,28.8418,78.7568,India,787000
Antalya,36.89,30.7,Turkey,783000
Al Hudaydah,14.7979,42.953,Yemen,780000
Islamabad,33.7,73.1666,Pakistan,780000
Campo Grande,-20.45,-54.6166,Brazil,778000
Shaoxing,30.0004,120.57,China,777000
Yichun,47.6999,128.9,China,777000
Mangalore,12.9,74.85,India,776632
Wuppertal,51.25,7.17,Germany,776525
Cheongju,36.6439,127.5012,"Korea, South",775096
Zamboanga,6.92,122.08,Philippines,773000
Hamhung,39.9101,127.5454,"Korea, North",773000
Ilorin,8.49,4.55,Nigeria,771000
Fuyang,30.0533,119.9519,China,771000
Saarbrucken,49.2504,6.97,Germany,770001
Fuxin,42.0105,121.66,China,770000
Shiyan,32.57,110.78,China,770000
Quetta,30.22,67.025,Pakistan,768000
Trujillo,-8.12,-79.02,Peru,765171
Kananga,-5.89,22.4,Congo (Kinshasa),765000
Trabzon,40.98,39.72,Turkey,764714
Cotonou,6.4,2.52,Benin,762000
Jincheng,35.5004,112.83,China,760000
Albuquerque,35.1053,-106.6464,United States,758523
Lodz,51.775,19.4514,Poland,758000
Krakow,50.06,19.96,Poland,756000
Vientiane,17.9667,102.6,Laos,754000
Saltillo,25.42,-101.005,Mexico,754000
Sao Jose dos Campos,-23.2,-45.8799,Brazil,753769
Hungnam,39.8231,127.6232,"Korea, North",751322
Taizz,13.6045,44.0394,Yemen,751000
Pietermaritzburg,-29.61,30.39,South Africa,750845
Tangier,35.7473,-5.8327,Morocco,750060
Changhua,24.0734,120.5134,Taiwan,750000
Hsinchu,24.8168,120.9767,Taiwan,750000
Fargona,40.39,71.78,Uzbekistan,750000
Namangan,41,71.67,Uzbekistan,750000
Kolhapur,16.7,74.22,India,750000
Liege,50.63,5.58,Belgium,749110
Ciudad Guayana,8.37,-62.62,Venezuela,746535
Birmingham,33.5276,-86.7988,United States,744189
Hegang,47.4,130.37,China,743307
Riga,56.95,24.1,Latvia,742572
Nouakchott,18.0864,-15.9753,Mauritania,742144
Naga,13.6192,123.1814,Philippines,741635
Gdansk,54.36,18.64,Poland,740000
Ansan,37.3481,126.8595,"Korea, South",739493
Nurnberg,49.45,11.08,Germany,737304
Oyo,7.8504,3.93,Nigeria,736072
Muscat,23.6133,58.5933,Oman,734697
Amravati,20.95,77.77,India,734451
Denpasar,-8.65,115.22,Indonesia,732344
Sokoto,13.06,5.24,Nigeria,732178
Beihai,21.4804,109.1,China,728978
Ashgabat,37.95,58.3833,Turkmenistan,727700
Bremen,53.08,8.8,Germany,724909
As Sulaymaniyah,35.5613,45.4309,Iraq,723170
Zagreb,45.8,16,Croatia,722526
Hannover,52.367,9.7167,Germany,722490
Cucuta,7.92,-72.52,Colombia,722146
Hamilton,43.25,-79.83,Canada,721053
Moshi,-3.3396,37.34,Tanzania,721018
Shaoguan,24.8,113.58,China,720266
Kumamoto,32.8009,130.7006,Japan,718232
Dayton,39.7797,-84.1998,United States,718169
Lianyungang,34.6004,119.17,China,715600
Acapulco,16.85,-99.916,Mexico,715584
Kandahar,31.61,65.6949,Afghanistan,715542
Dehra Dun,30.3204,78.05,India,714223
Rochester,43.168,-77.6162,United States,711998
Jeonju,35.8314,127.1404,"Korea, South",711424
Samarqand,39.67,66.945,Uzbekistan,708000
Qingyuan,23.7004,113.0301,China,706717
Sarasota,27.3391,-82.5439,United States,706245
Changzhi,36.1839,113.1053,China,706000
Tolyatti,53.4804,49.53,Russia,702879
Jaboatao,-8.11,-35.02,Brazil,702621
Shizuoka,34.9858,138.3854,Japan,701561
Bulawayo,-20.17,28.58,Zimbabwe,699385
Soledad,10.92,-74.77,Colombia,698852
Fresno,36.7834,-119.7941,United States,698021
Meknes,33.9004,-5.56,Morocco,697628
Sarajevo,43.85,18.383,Bosnia And Herzegovina,696731
La Plata,-34.9096,-57.96,Argentina,694253
Malegaon,20.5604,74.525,India,690844
Enugu,6.45,7.5,Nigeria,688862
Chisinau,47.005,28.8577,Moldova,688134
Huangshi,30.22,115.1,China,688090
Aracaju,-10.9,-37.12,Brazil,685356
Allentown,40.5961,-75.4756,United States,682899
Bonn,50.7205,7.08,Germany,680543
San Pedro Sula,15.5,-88.03,Honduras,680091
Nellore,14.44,79.9899,India,678004
Catania,37.5,15.08,Italy,674542
Gorakhpur,26.7504,83.38,India,674246
Ipoh,4.6,101.065,Malaysia,673318
Chongjin,41.7846,129.79,"Korea, North",672614
Tulsa,36.1284,-95.9042,United States,672054
Utsunomiya,36.55,139.87,Japan,667752
Puyang,35.7004,114.98,China,666322
An Najaf,32.0003,44.3354,Iraq,665552
Sao Jose dos Pinhais,-25.57,-49.18,Brazil,665063
Santo Andre,-23.6528,-46.5278,Brazil,662373
Bytom,50.35,18.91,Poland,662247
Pointe-Noire,-4.77,11.88,Congo (Brazzaville),659084
At Taif,21.2622,40.3823,Saudi Arabia,657282
Ismailia,30.5903,32.26,Egypt,656135
Concord,37.9722,-122.0016,United States,654770
Shimoga,13.9304,75.56,India,654055
Bien Hoa,10.97,106.8301,Vietnam,652646
Zhanyi,25.6005,103.8166,China,652604
Kryvyy Rih,47.9283,33.345,Ukraine,652380
Andijon,40.79,72.34,Uzbekistan,650000
Tiruppur,11.0804,77.33,India,650000
Irbid,32.55,35.85,Jordan,650000
Krasnodar,45.02,39,Russia,649851
Zaragoza,41.65,-0.89,Spain,649404
Genoa,44.41,8.93,Italy,647497
Lilongwe,-13.9833,33.7833,Malawi,646750
Diyarbakir,37.9204,40.23,Turkey,644763
Morelia,19.7334,-101.1895,Mexico,644306
Ulyanovsk,54.33,48.41,Russia,640680
Utrecht,52.1003,5.12,Netherlands,640000
Kikwit,-5.03,18.85,Congo (Kinshasa),637736
Al Hufuf,25.3487,49.5856,Saudi Arabia,637389
Yogyakarta,-7.78,110.375,Indonesia,636660
Wroclaw,51.1104,17.03,Poland,634893
Winnipeg,49.883,-97.166,Canada,632063
Izhevsk,56.85,53.23,Russia,631038
Cape Coral,26.6444,-81.9956,United States,630134
Springfield,42.1155,-72.5395,United States,628076
Zhuozhou,39.5401,115.79,China,628000
Raurkela,22.2304,84.83,India,625831
Quebec,46.84,-71.2456,Canada,624177
Poznan,52.4058,16.8999,Poland,623997
Colorado Springs,38.8674,-104.7606,United States,623946
Bur Said,31.26,32.29,Egypt,623864
Nanded,19.17,77.3,India,623708
Bannu,32.989,70.5986,Pakistan,622419
Asmara,15.3333,38.9333,Eritrea,620802
Southend-on-Sea,51.55,0.72,United Kingdom,618386
Dresden,51.05,13.75,Germany,617515
Wiesbaden,50.0804,8.25,Germany,617126
Charleston,32.8137,-79.9643,United States,616085
Changping,40.2248,116.1944,China,614821
Palu,-0.907,119.833,Indonesia,612445
Taizhou,32.4904,119.9,China,612356
Xiangtai,37.05,114.5,China,611739
Samsun,41.28,36.3437,Turkey,609339
Luxor,25.7,32.65,Egypt,609248
Belgaum,15.865,74.505,India,608756
Pontianak,-0.03,109.32,Indonesia,607311
Yaroslavl,57.62,39.87,Russia,606730
Constantine,36.36,6.5999,Algeria,605179
Bandjarmasin,-3.33,114.5801,Indonesia,603576
Abu Dhabi,24.4667,54.3666,United Arab Emirates,603492
Grand Rapids,42.9615,-85.6557,United States,602694
Kirkuk,35.4722,44.3923,Iraq,601433
Sangli,16.8604,74.575,India,601214
Barcelona,10.1304,-64.72,Venezuela,600954
Mission Viejo,33.6095,-117.6551,United States,600474
Canoas,-29.92,-51.18,Brazil,600000
El Mansura,31.0504,31.38,Egypt,600000
Sohag,26.5504,31.7,Egypt,600000
Barnaul,53.355,83.745,Russia,599579
Zahedan,29.5,60.83,Iran,598887
Jalalabad,34.4415,70.4361,Afghanistan,597971
Albany,42.6664,-73.7987,United States,597270
Chiclayo,-6.7629,-79.8366,Peru,596792
Hermosillo,29.0989,-110.9541,Mexico,595811
Port Louis,-20.1666,57.5,Mauritius,595491
Chandrapur,19.97,79.3,India,595118
Al Hillah,23.4895,46.7564,Saudi Arabia,594605
Al Hillah,32.4721,44.4217,Iraq,594605
Rasht,37.3,49.63,Iran,594590
Nagano,36.65,138.17,Japan,594311
Vinh,18.7,105.68,Vietnam,593645
Abeokuta,7.1604,3.35,Nigeria,593100
Kayseri,38.735,35.49,Turkey,592840
Samarinda,-0.5,117.15,Indonesia,592228
Ajmer,26.45,74.64,India,589985
Dortmund,51.53,7.45,Germany,588462
Vladivostok,43.13,131.91,Russia,587022
Irkutsk,52.32,104.245,Russia,586695
Knoxville,35.9692,-83.9495,United States,585249
Blantyre,-15.79,34.9899,Malawi,584877
Baton Rouge,30.4423,-91.1314,United States,583613
Anqing,30.5,117.05,China,580497
Cuttack,20.47,85.8899,India,580000
Hachioji,35.6577,139.3261,Japan,579399
Khabarovsk,48.455,135.12,Russia,579000
Veracruz,19.1773,-96.16,Mexico,578963
Kisangani,0.52,25.22,Congo (Kinshasa),578470
Libreville,0.3854,9.458,Gabon,578156
Kerman,30.3,57.08,Iran,577514
Urmia,37.53,45,Iran,577307
Bikaner,28.0304,73.3299,India,576015
Quetzaltenango,14.83,-91.52,Guatemala,575263
Bakersfield,35.353,-119.036,United States,574362
Ogden,41.228,-111.9677,United States,573632
Shihezi,44.3,86.0299,China,573182
Kuching,1.53,110.33,Malaysia,570407
Shuozhou,39.3004,112.42,China,570000
Niigata,37.92,139.04,Japan,569797
Pereira,4.8104,-75.68,Colombia,568750
Macau,22.203,113.545,Macau,568700
New Haven,41.3112,-72.9245,United States,568144
Bouake,7.69,-5.03,Côte D’Ivoire,567481
Columbia,34.037,-80.9042,United States,566166
Akron,41.0802,-81.5219,United States,565920
Binjai,3.6204,98.5001,Indonesia,564979
Manama,26.2361,50.5831,Bahrain,563920
Uberlandia,-18.9,-48.28,Brazil,563536
Sorocaba,-23.49,-47.47,Brazil,563281
Tongling,30.9504,117.78,China,562832
Weihai,37.5,122.1,China,560255
Mar del Plata,-38,-57.58,Argentina,555897
Santiago de Cuba,20.025,-75.8213,Cuba,555865
Siping,43.17,124.33,China,555609
Kagoshima,31.586,130.5611,Japan,555352
Surakarta,-7.565,110.825,Indonesia,555308
Makhachkala,42.98,47.5,Russia,554981
Bhavnagar,21.7784,72.13,India,554978
Uyo,5.008,7.85,Nigeria,554906
Bristol,51.45,-2.5833,United Kingdom,553528
Bahawalpur,29.39,71.675,Pakistan,552607
Kenitra,34.2704,-6.58,Morocco,551786
Ribeirao Preto,-21.17,-47.83,Brazil,551267
Kanazawa,36.56,136.64,Japan,551249
Orenburg,51.78,55.11,Russia,550204
Malaga,36.7204,-4.42,Spain,550058
Tabuk,28.3838,36.555,Saudi Arabia,547957
Puerto la Cruz,10.17,-64.68,Venezuela,546616
Jiujiang,29.73,115.98,China,545616
Hisar,29.17,75.725,India,544829
Kashgar,39.4763,75.9699,China,543914
Matola,-25.9696,32.46,Mozambique,543907
Bilaspur,22.0904,82.16,India,543454
Sargodha,32.0854,72.675,Pakistan,542603
Leipzig,51.3354,12.41,Germany,542529
Vilnius,54.6834,25.3166,Lithuania,542366
Tirunelveli,8.7304,77.69,India,542200
Cancun,21.17,-86.83,Mexico,542043
Yangzhou,32.4,119.43,China,539715
Novokuznetsk,53.75,87.115,Russia,539616
Al Ladhiqiyah,35.54,35.78,Syria,539147
Matamoros,25.88,-97.5,Mexico,538785
Goteborg,57.75,12,Sweden,537797
Otsu,35.0064,135.8674,Japan,536976
Tomsk,56.495,84.975,Russia,535479
Linxia,35.6,103.2,China,534555
Matsuyama,33.8455,132.7658,Japan,533541
Rouen,49.4304,1.08,France,532559
Jiangmen,22.5804,113.08,China,532419
Oaxaca,17.0827,-96.6699,Mexico,530728
Beira,-19.82,34.87,Mozambique,530604
Guntur,16.33,80.45,India,530577
Trablous,34.42,35.87,Lebanon,530000
Hamadan,34.796,48.515,Iran,528256
Cangzhou,38.3204,116.87,China,527681
Kota Kinabalu,5.98,116.11,Malaysia,527671
Gold Coast,-28.0815,153.4482,Australia,527660
Jian,27.1304,115,China,520248
Londrina,-23.3,-51.18,Brazil,520238
Ryazan,54.62,39.72,Russia,520173
Shashi,30.32,112.23,China,520000
Bello,6.33,-75.57,Colombia,519670
Tyumen,57.14,65.53,Russia,519119
Lipetsk,52.62,39.64,Russia,515655
Siliguri,26.7204,88.455,India,515574
Eskisehir,39.795,30.53,Turkey,514869
Banda Aceh,5.55,95.32,Indonesia,513698
Ujjain,23.1904,75.79,India,513350
Salta,-24.7834,-65.4166,Argentina,512686
Penza,53.18,45,Russia,512602
Blida,36.4203,2.83,Algeria,511348
Mykolayiv,46.9677,31.9843,Ukraine,510840
Karbala,32.6149,44.0245,Iraq,510692
Suez,30.005,32.5499,Egypt,508335
Gliwice,50.3304,18.67,Poland,507670
Bukittinggi,-0.3031,100.3615,Indonesia,506964
Liaoyuan,42.9,125.13,China,506548
Kota Baharu,6.12,102.23,Malaysia,505583
Jundiai,-23.2,-46.88,Brazil,505548
Edinburgh,55.9483,-3.2191,United Kingdom,504966
Tlaxcala,19.32,-98.23,Mexico,503878
Provo,40.2458,-111.6457,United States,503695
Arak,34.0804,49.7,Iran,503647
Davangere,14.47,75.92,India,503564
Vina del Mar,-33.03,-71.54,Chile,503534
Pingtung,22.6817,120.4817,Taiwan,503530
Annaba,36.92,7.76,Algeria,503524
Akola,20.71,77.01,India,503502
Brighton,50.8303,-0.17,United Kingdom,503008
Astrakhan,46.3487,48.055,Russia,502533
Bradford,53.8,-1.75,United Kingdom,501700
Bari,41.1142,16.8728,Italy,500577
Mazatlan,29.0171,-110.1333,Mexico,500000
Awka,6.2104,7.07,Nigeria,500000
San Lorenzo,-25.34,-57.52,Paraguay,500000
Taoyuan,24.9889,121.3111,Taiwan,500000
Chiayi,23.4755,120.4351,Taiwan,500000
Keelung,25.1333,121.7333,Taiwan,500000
Thai Nguyen,21.6,105.83,Vietnam,500000
Shuangyashan,46.6704,131.35,China,500000
El Minya,28.09,30.75,Egypt,500000
Damanhur,31.0504,30.47,Egypt,500000
Pasuruan,-7.6296,112.9,Indonesia,500000
Tsu,34.7171,136.5167,Japan,500000
Mataram,-8.5795,116.135,Indonesia,499409
Macapa,0.033,-51.05,Brazil,499166
Worcester,42.2705,-71.8079,United States,498997
Reynosa,26.08,-98.3,Mexico,498654
Shahrisabz,39.0618,66.8315,Uzbekistan,498545
Mesa,33.4017,-111.7181,United States,496401
Douma,33.5833,36.4,Syria,496145
Skopje,42,21.4335,Macedonia,494087
Mwanza,-2.52,32.93,Tanzania,493944
Wuwei,37.928,102.641,China,493092
Palm Bay,27.9861,-80.6628,United States,489912
Port Sudan,19.6158,37.2164,Sudan,489725
Santa Fe,-31.6239,-60.69,Argentina,489505
Tula,54.2,37.6299,Russia,489486
Beni Suef,29.0804,31.09,Egypt,489450
Yanji,42.8823,129.5128,China,488740
Toledo,41.6639,-83.5822,United States,488672
Bologna,44.5004,11.34,Italy,488172
Saharanpur,29.97,77.55,India,484873
Murrieta,33.5719,-117.1909,United States,483681
Gulbarga,17.35,76.82,India,483615
Bhatpara,22.8504,88.52,India,483129
Wichita,37.6897,-97.3442,United States,483057
Ife,7.4804,4.56,Nigeria,482365
Feira de Santana,-12.25,-38.97,Brazil,481911
Shah Alam,3.0667,101.55,Malaysia,481654
Mariupol,47.0962,37.5562,Ukraine,481626
Des Moines,41.5725,-93.6104,United States,481222
Tuxtla Gutierrez,16.75,-93.15,Mexico,481128
Herat,34.33,62.17,Afghanistan,481009
Homyel,52.43,31,Belarus,480951
Zhaoqing,23.0504,112.45,China,480000
Americana,-22.7499,-47.33,Brazil,479472
Dhule,20.9,74.77,India,479073
Ostrava,49.8304,18.25,Czechia,478963
Yazd,31.9201,54.37,Iran,477905
Sialkote,32.52,74.56,Pakistan,477396
Kemerovo,55.34,86.09,Russia,477090
Nazret,8.55,39.27,Ethiopia,476892
Staten Island,40.5834,-74.1496,United States,476015
Jiaojing,28.6804,121.45,China,471500
Chaoyang,41.5504,120.42,China,470296
Juiz de Fora,-21.77,-43.375,Brazil,470193
Udaipur,24.6,73.73,India,469737
Long Beach,33.8059,-118.161,United States,469450
Greenville,34.8363,-82.365,United States,467894
Izmit,40.776,29.9306,Turkey,466504
Piraievs,37.95,23.7,Greece,466065
Shymkent,42.32,69.595,Kazakhstan,465392
Iligan,8.1712,124.2154,Philippines,464599
Qazvin,36.27,50,Iran,464551
Bloemfontein,-29.12,26.2299,South Africa,463064
Calabar,4.9604,8.33,Nigeria,461796
Malatya,38.3704,38.3,Turkey,461574
Panzhihua,26.55,101.73,China,461513
Bandar-e-Abbas,27.2041,56.2721,Iran,461499
Naberezhnyye Chelny,55.7,52.3199,Russia,461086
Hamah,35.1503,36.73,Syria,460602
Cranbourne,-38.0996,145.2834,Australia,460491
Iquitos,-3.75,-73.25,Peru,458729
Mazar-e Sharif,36.7,67.1,Afghanistan,458151
Leicester,52.63,-1.1332,United Kingdom,457983
Kirov,58.5901,49.67,Russia,457437
Jingdezhen,29.2704,117.18,China,457298
Durango,24.0311,-104.67,Mexico,457140
Jambi,-1.59,103.61,Indonesia,457090
Volta Redonda,-22.5196,-44.095,Brazil,456362
Hengshui,37.72,115.7,China,456356
Sfax,34.75,10.72,Tunisia,453050
Sunderland,54.92,-1.38,United Kingdom,452934
Xalapa,19.53,-96.92,Mexico,452186
Luhansk,48.5698,39.3344,Ukraine,452000
Manado,1.48,124.85,Indonesia,451893
Qaraghandy,49.885,73.115,Kazakhstan,451800
An Nasiriyah,31.0429,46.2676,Iraq,451547
Oshawa,43.88,-78.85,Canada,450963
Qitaihe,45.8,130.85,China,450617
Belfast,54.6,-5.96,United Kingdom,450406
Sanliurfa,37.17,38.795,Turkey,449549
Chengde,40.9604,117.93,China,449325
Xuchang,34.0204,113.82,China,449258
Chlef,36.1704,1.32,Algeria,449167
Oita,33.2432,131.5979,Japan,448907
Baguio City,16.43,120.5699,Philippines,447824
San Juan,-31.55,-68.52,Argentina,447048
Cheboksary,56.13,47.25,Russia,446781
Ado Ekiti,7.6304,5.22,Nigeria,446749
Balikpapan,-1.25,116.83,Indonesia,445905
Bellary,15.15,76.915,India,445388
Bamenda,5.96,10.15,Cameroon,445299
Gent,51.03,3.7,Belgium,444336
Tokushima,34.0674,134.5525,Japan,443760
Little Rock,34.7255,-92.3581,United States,442699
Wuzhou,23.48,111.32,China,442315
Portsmouth,50.8003,-1.08,United Kingdom,442252
Harrisburg,40.2752,-76.8843,United States,441580
Cabimas,10.43,-71.45,Venezuela,441094
Foz do Iguacu,-25.5235,-54.53,Brazil,440455
Denton,33.2176,-97.1421,United States,440146
Wakayama,34.2231,135.1677,Japan,440006
Strasbourg,48.58,7.75,France,439972
Madison,43.0808,-89.3922,United States,439553
Mawlamyine,16.5004,97.67,Burma,438861
San Cristobal,7.77,-72.25,Venezuela,438798
Nantes,47.2104,-1.59,France,438537
Khujand,40.29,69.6199,Tajikistan,437684
Guangyuan,32.43,105.87,China,437435
Khomeini Shahr,32.7004,51.47,Iran,437138
Garoua,9.3,13.39,Cameroon,436899
Bukavu,-2.51,28.84,Congo (Kinshasa),436779
Tuticorin,8.82,78.13,India,436094
Nagasaki,32.765,129.885,Japan,435455
Pohang,36.0209,129.3715,"Korea, South",435266
Kaliningrad,54.7,20.4973,Russia,434954
Likasi,-10.97,26.78,Congo (Kinshasa),434408
Reno,39.5497,-119.8483,United States,433271
Spanish Town,17.9833,-76.95,Jamaica,432704
Port Saint Lucie,27.2796,-80.3883,United States,432589
San Luis,-33.3,-66.35,Argentina,432310
Katsina,12.9904,7.6,Nigeria,432149
Welkom,-27.97,26.73,South Africa,431944
Santa Marta,11.2472,-74.2017,Colombia,431781
Villahermosa,18,-92.9,Mexico,428564
Bryansk,53.26,34.43,Russia,427236
Bournemouth,50.73,-1.9,United Kingdom,426945
Bengkulu,-3.8,102.27,Indonesia,426673
Heidelberg,49.42,8.7,Germany,426590
Oakland,37.7903,-122.2165,United States,425195
Kurnool,15.83,78.03,India,424920
Chaozhou,23.68,116.63,China,424787
Batangas,13.7817,121.0217,Philippines,424508
Bratislava,48.15,17.117,Slovakia,423737
Gaya,24.8,85,India,423692
Ibague,4.4389,-75.2322,Colombia,421685
Ivanovo,57.01,41.01,Russia,420839
Erzurum,39.9204,41.29,Turkey,420691
Akure,7.2504,5.2,Nigeria,420594
Asyut,27.19,31.1799,Egypt,420585
Kolwezi,-10.7167,25.4724,Congo (Kinshasa),418000
Sukkur,27.7136,68.8486,Pakistan,417767
Luohe,33.57,114.03,China,417356
Campina Grande,-7.23,-35.88,Brazil,417261
Kitchener,43.45,-80.5,Canada,417001
Winston-Salem,36.1029,-80.261,United States,416581
Middlesbrough,54.5804,-1.23,United Kingdom,416042
Meizhou,24.3005,116.12,China,414930
Ardabil,38.25,48.3,Iran,414603
Magnitogorsk,53.4227,58.98,Russia,413351
Gifu,35.4231,136.7628,Japan,412895
Huancayo,-12.08,-75.2,Peru,412733
Nha Trang,12.25,109.17,Vietnam,411556
Maturin,9.75,-63.17,Venezuela,410972
Xuanhua,40.5944,115.0243,China,409745
Kursk,51.74,36.19,Russia,409431
Oujda,34.69,-1.91,Morocco,409391
Metz,49.1203,6.18,France,409186
Al Ayn,24.2305,55.74,United Arab Emirates,408733
Jeju,33.5101,126.5219,"Korea, South",408364
Oshogbo,7.7704,4.56,Nigeria,408245
Indio,33.7346,-116.2346,United States,408097
Ipatinga,-19.4796,-42.52,Brazil,407894
Szczecin,53.4204,14.53,Poland,407811
Durham,35.9797,-78.9037,United States,407575
Syracuse,43.0409,-76.1438,United States,407259
Chattanooga,35.0657,-85.2488,United States,407182
Murcia,37.98,-1.13,Spain,406807
Kitwe,-12.81,28.22,Zambia,404901
Tanta,30.7904,31,Egypt,404901
Lancaster,40.0421,-76.3012,United States,404525
Zanzibar,-6.16,39.2,Tanzania,403658
Taubate,-23.0195,-45.56,Brazil,403560
Yining,43.9,81.35,China,403489
Bissau,11.865,-15.5984,Guinea-Bissau,403339
Pasay City,14.5504,121,Philippines,403064
Spokane,47.6671,-117.433,United States,403043
Mbale,1.0904,34.17,Uganda,402368
Palm Coast,29.5389,-81.246,United States,401757
Kassala,15.46,36.39,Sudan,401477
Sunchon,39.4236,125.939,"Korea, North",400629
Tver,56.86,35.89,Russia,400212
Surgut,61.2599,73.425,Russia,400000
Jingmen,31.0304,112.1,China,400000
Sikar,27.6104,75.14,India,400000
Tumkur,13.33,77.1,India,399606
Gomez Palacio,25.5701,-103.5,Mexico,399328
Buraydah,26.3664,43.9628,Saudi Arabia,398581
Khmelnytskyy,49.4249,27.0015,Ukraine,398346
Eindhoven,51.43,5.5,Netherlands,398053
Chiang Mai,18.8,98.98,Thailand,397211
Piura,-5.21,-80.63,Peru,396932
Horlivka,48.2996,38.0547,Ukraine,396885
Arlington,32.6998,-97.125,United States,396394
Ndola,-12.9999,28.65,Zambia,396339
Yuxi,24.38,102.57,China,396325
Bonita Springs,26.3559,-81.7861,United States,396220
Poughkeepsie,41.6949,-73.921,United States,396041
Kisumu,-0.09,34.75,Kenya,395615
Stockton,37.9766,-121.3112,United States,394467
Kollam,8.9004,76.57,India,394163
Tallinn,59.4339,24.728,Estonia,394024
Wellington,-41.3,174.7833,New Zealand,393400
El Obeid,13.1833,30.2167,Sudan,393311
Niyala,12.06,24.89,Sudan,392373
Sandakan,5.843,118.108,Malaysia,392288
Ahmednagar,19.1104,74.75,India,391760
Osh,40.5404,72.79,Kyrgyzstan,391277
Stoke,53.0004,-2.18,United Kingdom,390801
Bhilwara,25.3504,74.635,India,389911
Oxnard,34.1962,-119.1819,United States,389792
Comilla,23.4704,91.17,Bangladesh,389411
Augusta,33.3645,-82.0708,United States,389383
Scranton,41.4044,-75.6649,United States,389022
Samut Prakan,13.6069,100.6115,Thailand,388920
Grenoble,45.1804,5.72,France,388574
Nampula,-15.136,39.293,Mozambique,388526
Nizamabad,18.6704,78.1,India,388505
Granada,37.165,-3.585,Spain,388290
Brno,49.2004,16.61,Czechia,388277
Coventry,52.4204,-1.5,United Kingdom,388271
Alajuela,10.02,-84.23,Costa Rica,387743
Iloilo,10.705,122.545,Philippines,387681
Campos,-21.75,-41.32,Brazil,387417
Resistencia,-27.46,-58.99,Argentina,387158
Baicheng,45.62,122.82,China,386861
Qarshi,38.8704,65.8,Uzbekistan,386361
Misratah,32.38,15.1,Libya,386120
Hail,27.5236,41.7001,Saudi Arabia,385257
Boise,43.6006,-116.2316,United States,385218
Bejaia,36.7604,5.07,Algeria,384937
Southampton,50.9,-1.4,United Kingdom,384417
Celaya,20.53,-100.8,Mexico,383697
Pasto,1.2136,-77.2811,Colombia,382236
Modesto,37.6374,-121.0028,United States,381398
Caxias do Sul,-29.18,-51.17,Brazil,381270
Nizhny Tagil,57.92,59.975,Russia,381116
Xichang,27.88,102.3,China,379993
Dezhou,37.4504,116.3,China,379555
Vigo,42.22,-8.73,Spain,378952
Las Palmas,28.1,-15.43,Spain,378495
Parbhani,19.2704,76.76,India,378326
Karlsruhe,49,8.4,Germany,377487
Zhoukou,33.6304,114.63,China,377061
Makiyivka,48.0297,37.9746,Ukraine,376610
Putian,25.4303,119.02,China,376558
Kahramanmaras,37.61,36.945,Turkey,376045
Manizales,5.06,-75.52,Colombia,375848
Palma,39.5743,2.6542,Spain,375773
Manukau,-37,174.885,New Zealand,375600
Shillong,25.5705,91.88,India,375527
Khorramabad,33.4804,48.35,Iran,375198
Villavicencio,4.1533,-73.635,Colombia,374763
Sao Jose do Rio Preto,-20.7996,-49.39,Brazil,374699
Kaunas,54.9504,23.88,Lithuania,374643
Latur,18.4004,76.57,India,374394
Kissimmee,28.3042,-81.4164,United States,374231
Youngstown,41.0993,-80.6463,United States,373728
Shache,38.4261,77.25,China,373492
Seremban,2.7105,101.94,Malaysia,372917
Denizli,37.7704,29.08,Turkey,372344
Van,38.4954,43.4,Turkey,371713
La Coruna,43.33,-8.42,Spain,370610
Abadan,30.3307,48.2797,Iran,370180
Quzhou,28.9704,118.87,China,370000
Rajapalaiyam,9.4204,77.58,India,369991
Reading,51.47,-0.98,United Kingdom,369804
Najran,17.5065,44.1316,Saudi Arabia,369609
Mahilyow,53.8985,30.3247,Belarus,369200
Al-Qatif,26.5196,50.0115,Saudi Arabia,368892
Valletta,35.8997,14.5147,Malta,368250
Mazatlan,23.2211,-106.42,Mexico,368204
Longyan,25.1804,117.03,China,367896
Aurora,39.7084,-104.7274,United States,366623
Bydgoszcz,53.1204,18.01,Poland,366452
Kuantan,3.83,103.32,Malaysia,366229
Gorontalo,0.55,123.07,Indonesia,365497
Nakuru,-0.28,36.07,Kenya,364727
Vladikavkaz,43.0504,44.67,Russia,364630
Larkana,27.5618,68.2068,Pakistan,364033
Christchurch,-43.535,172.63,New Zealand,363200
Stavropol,45.05,41.98,Russia,363064
Sanya,18.2591,109.504,China,362689
Bhagalpur,25.23,86.98,India,361548
Maseru,-29.3167,27.4833,Lesotho,361324
Sheikhu Pura,31.72,73.99,Pakistan,361303
Cusco,-13.525,-71.9722,Peru,361182
Tamale,9.4004,-0.84,Ghana,360579
Ulan Ude,51.825,107.625,Russia,360278
Bobo Dioulasso,11.18,-4.29,Burkina Faso,360106
Lublin,51.2504,22.5727,Poland,360044
Halifax,44.65,-63.6,Canada,359111
Augsburg,48.35,10.9,Germany,358989
Sungai Petani,5.6497,100.4793,Malaysia,358499
Ad Diwaniyah,31.9889,44.924,Iraq,358408
Taraz,42.9,71.365,Kazakhstan,358153
Toulon,43.1342,5.9188,France,357693
Zanjan,36.67,48.5,Iran,357471
San Sebastian,43.3204,-1.98,Spain,357468
Iwaki,37.0553,140.89,Japan,357309
Encarnacion,-27.3472,-55.8739,Paraguay,357119
Posadas,-27.3578,-55.8851,Argentina,357119
Fuyu,45.1804,124.82,China,356905
Ca Mau,9.1774,105.15,Vietnam,356636
Asahikawa,43.755,142.38,Japan,356612
Mirput Khas,25.5318,69.0118,Pakistan,356435
Archangel,64.575,40.545,Russia,356051
Wafangdian,39.6259,121.996,China,355844
Ambon,-3.7167,128.2,Indonesia,355596
Orizaba,18.85,-97.13,Mexico,355333
Longxi,35.0476,104.6394,China,355037
Santiago del Estero,-27.7833,-64.2667,Argentina,354692
Mito,36.3704,140.48,Japan,353892
Safi,32.32,-9.24,Morocco,353476
Eldoret,0.52,35.27,Kenya,353381
Rahim Yar Khan,28.4202,70.2952,Pakistan,353203
Neiva,2.931,-75.3302,Colombia,352855
Anaheim,33.839,-117.8572,United States,352497
Vinnytsya,49.2254,28.4816,Ukraine,352115
Hualien,23.9837,121.6,Taiwan,350468
Kuala Terengganu,5.3304,103.12,Malaysia,350210
Qoqon,40.5404,70.94,Uzbekistan,350000
Long Xuyen,10.3804,105.42,Vietnam,350000
Viet Tri,21.3304,105.43,Vietnam,350000
Yumen,39.83,97.73,China,350000
Haarlem,52.3804,4.63,Netherlands,349957
Buon Me Thuot,12.667,108.05,Vietnam,349945
Chimbote,-9.07,-78.57,Peru,349846
Muzaffarnagar,29.485,77.695,India,349706
Nuevo Laredo,27.5,-99.55,Mexico,349550
Lancaster,34.6934,-118.1753,United States,349218
Sanandaj,35.3,47.02,Iran,349176
Linz,48.3192,14.2888,Austria,349161
Camaguey,21.3808,-77.9169,Cuba,347562
Verona,45.4404,10.99,Italy,347459
Victorville,34.5277,-117.3537,United States,346948
London,42.97,-81.25,Canada,346765
Astana,51.1811,71.4278,Kazakhstan,345604
Merida,8.4,-71.13,Venezuela,345489
Charleroi,50.4204,4.45,Belgium,345367
Belgorod,50.63,36.5999,Russia,345289
Kosti,13.17,32.66,Sudan,345068
Al Amarah,31.8416,47.1512,Iraq,345007
Maebashi,36.3927,139.0727,Japan,344871
Pensacola,30.4427,-87.1886,United States,344400
Kurgan,55.46,65.345,Russia,343129
Kohat,33.6027,71.4327,Pakistan,343027
Vitsyebsk,55.1887,30.1853,Belarus,342700
Piracicaba,-22.71,-47.64,Brazil,342209
Yeosu,34.7368,127.7458,"Korea, South",341994
Fayetteville,36.0713,-94.166,United States,341890
Corpus Christi,27.7173,-97.3822,United States,341435
Jhang,31.2804,72.325,Pakistan,341210
Pematangsiantar,2.9614,99.0615,Indonesia,341200
Arusha,-3.36,36.67,Tanzania,341136
Corrientes,-27.49,-58.81,Argentina,340823
Koriyama,37.41,140.38,Japan,340560
Plovdiv,42.154,24.754,Bulgaria,340494
Chitungwiza,-18,31.1,Zimbabwe,340360
Aksu,41.15,80.25,China,340020
Yaan,29.9804,103.08,China,340000
Tieling,42.3004,123.82,China,340000
Irapuato,20.67,-101.5,Mexico,339554
Kaluga,54.5204,36.27,Russia,338978
East London,-32.97,27.87,South Africa,338627
Jackson,32.3163,-90.2124,United States,338185
Kaesong,37.964,126.5644,"Korea, North",338155
Ciudad Bolivar,8.1,-63.6,Venezuela,338000
Kawagoe,35.9177,139.4911,Japan,337931
Lalitpur,27.6666,85.3333,Nepal,337785
Phan Thiet,10.9337,108.1001,Vietnam,336846
Alor Setar,6.1133,100.3729,Malaysia,336475
Santa Cruz de Tenerife,28.47,-16.25,Spain,336061
Gijon,43.53,-5.67,Spain,335972
Greensboro,36.0956,-79.8269,United States,335588
Kochi,33.5624,133.5375,Japan,335570
Flint,43.0236,-83.6922,United States,335354
Bauru,-22.33,-49.08,Brazil,335024
Nakhon Ratchasima,15,102.1,Thailand,334984
Orel,52.97,36.07,Russia,334552
Takamatsu,34.3447,134.0448,Japan,334223
Santa Ana,33.7366,-117.8819,United States,334136
Muzaffarpur,26.1204,85.3799,India,333200
Beni,0.4904,29.45,Congo (Kinshasa),332903
Toyama,36.7,137.23,Japan,332812
Hangu,39.232,117.777,China,332793
Medani,14.4,33.52,Sudan,332714
Montes Claros,-16.72,-43.86,Brazil,332379
Bielefeld,52.03,8.53,Germany,331906
Bujumbura,-3.3761,29.36,Burundi,331700
Heyuan,23.7304,114.68,China,330961
Mathura,27.5,77.67,India,330511
Mymensingh,24.7504,90.38,Bangladesh,330126
Baishan,41.9,126.43,China,330000
Patiala,30.3204,76.385,India,329224
Wonsan,39.1605,127.4308,"Korea, North",329207
Pavlodar,52.3,76.95,Kazakhstan,329002
Fort Wayne,41.0885,-85.1436,United States,328564
Maringa,-23.4095,-51.93,Brazil,328335
Sagar,23.8504,78.75,India,328240
Canberra,-35.283,149.129,Australia,327700
Sochi,43.59,39.73,Russia,327608
Montpellier,43.6104,3.87,France,327254
Itajai,-26.8996,-48.68,Brazil,327126
Sousse,35.83,10.625,Tunisia,327004
Ann Arbor,42.2755,-83.7312,United States,326288
Iasi,47.1683,27.5749,Romania,325914
Brahmapur,19.32,84.8,India,324726
Birjand,32.88,59.2199,Iran,324703
Fayetteville,35.0846,-78.9776,United States,324700
Yoshkar Ola,56.6354,47.8749,Russia,324406
Miyazaki,31.9182,131.4184,Japan,324384
Volzhskiy,48.7948,44.7744,Russia,323293
Chenzhou,25.8004,113.0301,China,322997
Valladolid,41.65,-4.75,Spain,322304
Santa Rosa,38.4465,-122.706,United States,321908
Al Kut,32.4907,45.8304,Iraq,321521
Cordoba,37.88,-4.77,Spain,321376
Smolensk,54.7827,32.0473,Russia,320991
Lansing,42.7142,-84.56,United States,320928
Ciudad del Este,-25.5167,-54.6161,Paraguay,320872
Pelotas,-31.75,-52.33,Brazil,320674
Podolsk,55.3804,37.5299,Russia,320635
Kherson,46.6325,32.6007,Ukraine,320477
Shahjahanpur,27.8804,79.905,India,320434
Itu,-23.26,-47.3,Brazil,320170
Legazpi,13.17,123.75,Philippines,320081
Akita,39.71,140.09,Japan,320069
Maroua,10.5956,14.3247,Cameroon,319941
Anapolis,-16.3196,-48.96,Brazil,319587
Pachuca,20.1704,-98.73,Mexico,319581
Bukhara,39.78,64.43,Uzbekistan,319476
Murmansk,68.97,33.1,Russia,319263
Windsor,42.3333,-83.0333,Canada,319246
Holguin,20.8872,-76.2631,Cuba,319102
Oskemen,49.99,82.6149,Kazakhstan,319067
Tepic,21.5054,-104.88,Mexico,318781
Vladimir,56.13,40.4099,Russia,318648
Mobile,30.6783,-88.1162,United States,318084
Hat Yai,6.9964,100.4714,Thailand,317954
Poltava,49.574,34.5703,Ukraine,317847
New Delhi,28.6,77.2,India,317797
Cumana,10.45,-64.18,Venezuela,317603
Hrodna,53.6779,23.8341,Belarus,317365
Rohtak,28.9,76.58,India,317245
El Faiyum,29.31,30.84,Egypt,316772
Cluj-Napoca,46.7884,23.5984,Romania,316748
Bauchi,10.3104,9.84,Nigeria,316149
Lexington,38.0423,-84.4587,United States,315939
Alicante,38.3512,-0.4836,Spain,315863
Dezful,32.3804,48.47,Iran,315482
Maiquetia,10.6004,-66.97,Venezuela,315442
Armenia,4.5343,-75.6811,Colombia,315328
Timisoara,45.7588,21.2234,Romania,315053
Ljubljana,46.0553,14.515,Slovenia,314807
Pescara,42.4554,14.2187,Italy,314789
Gdynia,54.5204,18.53,Poland,314664
Angeles,15.1451,120.5451,Philippines,314493
Ninde,26.6804,119.5301,China,314077
Aswan,24.0875,32.8989,Egypt,313442
Varna,43.2156,27.8953,Bulgaria,312770
Koblenz,50.3505,7.6,Germany,312633
Cherepovets,59.1404,37.91,Russia,311850
Qurghonteppa,37.8373,68.7713,Tajikistan,311574
Semey,50.435,80.275,Kazakhstan,311353
Galati,45.4559,28.0459,Romania,311156
Brasov,45.6475,25.6072,Romania,311044
Sambalpur,21.4704,83.9701,India,310852
Pucallpa,-8.3689,-74.535,Peru,310750
Antofagasta,-23.65,-70.4,Chile,309832
Huntsville,34.6989,-86.6414,United States,309716
Santa Clarita,34.4155,-118.4992,United States,309378
Asheville,35.5706,-82.5537,United States,309250
Sapele,5.8904,5.68,Nigeria,309162
Dayr az Zawr,35.3304,40.13,Syria,309141
Chita,52.055,113.465,Russia,308500
Valledupar,10.48,-73.25,Colombia,308237
Vitoria da Conquista,-14.85,-40.84,Brazil,308204
Antsirabe,-19.85,47.0333,Madagascar,307921
Naltchik,43.4981,43.6179,Russia,307866
Chernihiv,51.5049,31.3015,Ukraine,307684
Ratlam,23.3504,75.03,India,307229
Saint Paul,44.9477,-93.104,United States,306621
Ksar El Kebir,35.0204,-5.91,Morocco,306600
Tawau,4.271,117.896,Malaysia,306462
Firozabad,27.15,78.3949,India,306409
Porto Velho,-8.75,-63.9,Brazil,306180
San Salvador de Jujuy,-24.1833,-65.3,Argentina,305891
Hatay,36.2304,36.12,Turkey,305564
Franca,-20.53,-47.39,Brazil,305041
Rajahmundry,17.0303,81.79,India,304804
Olongapo,14.8296,120.2828,Philippines,304388
Craiova,44.3263,23.8259,Romania,304142
Kom Ombo,24.47,32.95,Egypt,303962
Los Teques,10.42,-67.02,Venezuela,303470
Constanta,44.2027,28.61,Romania,303399
Saransk,54.1704,45.18,Russia,303394
Mengzi,23.3619,103.4061,China,303341
Ganca,40.685,46.35,Azerbaijan,303268
Fort Collins,40.5479,-105.0658,United States,303184
Hakodate,41.795,140.74,Japan,302984
Antioch,37.9789,-121.7957,United States,302885
Chemnitz,50.83,12.92,Germany,302643
Henderson,36.0145,-115.0362,United States,302539
Kingston upon Hull,53.7504,-0.33,United Kingdom,302296
Batman,37.8904,41.14,Turkey,302074
Qena,26.1505,32.72,Egypt,302027
Barddhaman,23.2504,87.865,India,301725
Jinja,0.4404,33.1999,Uganda,301619
Gujrat,32.58,74.08,Pakistan,301506
Tambov,52.73,41.43,Russia,301482
Hami,42.827,93.515,China,300848
Brest,52.1,23.7,Belarus,300715
Mardan,34.2,72.04,Pakistan,300424
Bidar,17.9229,77.5175,India,300136
Qyzylorda,44.8,65.465,Kazakhstan,300000
Rach Gia,10.0154,105.0914,Vietnam,300000
Soc Trang,9.6037,105.98,Vietnam,300000
Porto-Novo,6.4833,2.6166,Benin,300000
Curepipe,-20.3162,57.5166,Mauritius,299975
Kanggye,40.9732,126.6032,"Korea, North",299514
Baqubah,33.7476,44.6573,Iraq,299479
Dumyat,31.4204,31.82,Egypt,299459
Jember,-8.1727,113.6873,Indonesia,298585
Al Mubarraz,25.4291,49.5659,Saudi Arabia,298562
Al Kharj,24.1556,47.312,Saudi Arabia,298428
Aomori,40.825,140.71,Japan,298394
Chernivtsi,48.3053,25.9216,Ukraine,298251
Iskenderun,36.5804,36.17,Turkey,297943
Cherkasy,49.4347,32.0709,Ukraine,297568
Trenton,40.2237,-74.764,United States,296869
Bandar Seri Begawan,4.8833,114.9333,Brunei,296500
Rampur,28.8154,79.025,India,296418
Morioka,39.72,141.13,Japan,295172
Ar Ramadi,33.42,43.3,Iraq,295121
Port-of-Spain,10.652,-61.517,Trinidad And Tobago,294934
Vologda,59.21,39.92,Russia,294889
Sumy,50.9243,34.7809,Ukraine,294456
Swansea,51.63,-3.95,United Kingdom,294339
Fukushima,37.74,140.47,Japan,294237
Blumenau,-26.92,-49.09,Brazil,293949
Thies,14.8104,-16.93,Senegal,293001
Kakinada,16.9675,82.2375,India,292923
Panipat,29.4004,76.97,India,292808
Makurdi,7.73,8.53,Nigeria,292645
Ponta Grossa,-25.09,-50.16,Brazil,292177
Minna,9.62,6.55,Nigeria,291905
Bialystok,53.1504,23.17,Poland,291855
Mbeya,-8.89,33.43,Tanzania,291649
Cagliari,39.2224,9.104,Italy,291511
Lakeland,28.0557,-81.9543,United States,291281
Khammam,17.2804,80.1601,India,290839
Bafoussam,5.4904,10.4099,Cameroon,290768
Kasur,31.1254,74.455,Pakistan,290643
Hulan Ergi,47.21,123.61,China,289999
Kassel,51.3,9.5,Germany,289924
Limeira,-22.5495,-47.4,Brazil,289665
Victoria,48.4333,-123.35,Canada,289625
Bhuj,23.2504,69.81,India,289429
Huizhou,23.08,114.4,China,289201
Karimnagar,18.4604,79.11,India,288251
Sinuiju,40.0859,124.4213,"Korea, North",288112
Talcahuano,-36.7167,-73.1167,Chile,288074
Ciudad Obregon,27.4666,-109.925,Mexico,288002
Shreveport,32.4659,-93.7959,United States,287432
Davenport,41.5563,-90.6052,United States,287413
Coatzacoalcos,18.1204,-94.42,Mexico,287285
Springfield,37.1943,-93.2915,United States,287222
Tirupati,13.6504,79.42,India,287035
Cuenca,-2.9,-79,Ecuador,286878
Butembo,0.13,29.28,Congo (Kinshasa),286403
Sekondi,4.9433,-1.704,Ghana,286248
Plano,33.0502,-96.7487,United States,286143
Petropolis,-22.5095,-43.2,Brazil,286071
Hospet,15.2804,76.375,India,286007
Rangpur,25.75,89.28,Bangladesh,285564
Rockford,42.2598,-89.0641,United States,285562
Newark,40.7245,-74.1725,United States,285154
Lincoln,40.8098,-96.6802,United States,285118
Zagazig,30.5833,31.5167,Egypt,285097
Mandya,12.5704,76.92,India,285034
Round Lake Beach,42.3791,-88.0811,United States,284607
Bago,17.32,96.515,Burma,284318
Barinas,8.6,-70.25,Venezuela,284289
Port Moresby,-9.4647,147.1925,Papua New Guinea,283733
Iksan,35.941,126.9454,"Korea, South",283501
Alwar,27.5454,76.6049,India,283228
Cadiz,10.9587,123.3086,Philippines,283157
Cadiz,36.535,-6.225,Spain,283157
Aizawl,23.7104,92.72,India,283021
Kupang,-10.1787,123.583,Indonesia,282396
Tongchuan,35.08,109.03,China,282258
Zhytomyr,50.2456,28.6622,Ukraine,282192
Jining,41.03,113.08,China,281716
Bahia Blanca,-38.74,-62.265,Argentina,281536
Cap-Haitien,19.7592,-72.2125,Haiti,281487
Ambato,-1.2696,-78.62,Ecuador,281425
South Bend,41.6771,-86.2692,United States,281100
Gorgan,36.8303,54.48,Iran,281023
Batna,35.57,6.17,Algeria,280798
Tacna,-18,-70.25,Peru,280098
Savannah,32.0282,-81.1786,United States,280082
Tacloban,11.2504,125,Philippines,280006
Xinzhou,38.4104,112.72,China,279607
Cotabato,7.2169,124.2484,Philippines,279519
Rize,41.0208,40.5219,Turkey,279450
Ica,-14.068,-75.7255,Peru,279420
Sumqayt,40.58,49.63,Azerbaijan,279159
Taganrog,47.23,38.92,Russia,279056
Kaolack,14.15,-16.1,Senegal,277812
Kostroma,57.77,40.94,Russia,277656
Irvine,33.6772,-117.7738,United States,277453
Owo,7.2004,5.59,Nigeria,276574
Sukabumi,-6.9096,106.9,Indonesia,276414
Komsomolsk na Amure,50.555,137.02,Russia,275908
Prokopyevsk,53.9,86.71,Russia,275615
Bern,46.9167,7.467,Switzerland,275329
Monteria,8.7575,-75.89,Colombia,275198
Mbandaka,0.04,18.26,Congo (Kinshasa),274996
Ciudad Victoria,23.72,-99.13,Mexico,274900
Setif,36.18,5.4,Algeria,274744
Pamplona,42.82,-1.65,Spain,274545
Jinshi,29.6321,111.8517,China,274000
Ubon Ratchathani,15.25,104.83,Thailand,273893
Crato,-7.4639,-63.04,Brazil,273883
Crato,-7.2296,-39.42,Brazil,273883
Guantanamo,20.1453,-75.2061,Cuba,272801
Blackpool,53.8304,-3.05,United Kingdom,272792
Majene,-3.5336,118.966,Indonesia,272377
Yamagata,38.2705,140.32,Japan,272209
Pakalongan,-6.8796,109.67,Indonesia,272000
Elazig,38.68,39.23,Turkey,271492
Sari,36.5504,53.1,Iran,271467
Canton,40.8076,-81.3677,United States,271184
Tasikmalaya,-7.3254,108.2147,Indonesia,271143
Bijapur,16.8354,75.71,India,271064
Venice,45.4387,12.335,Italy,270816
Jersey City,40.7161,-74.0682,United States,270753
Chula Vista,32.6281,-117.0145,United States,270471
Gombe,10.2904,11.17,Nigeria,270366
Munster,51.9704,7.62,Germany,270184
Thohoyandou,-22.95,30.48,South Africa,269707
Kiel,54.3304,10.13,Germany,269427
Malmo,55.5833,13.0333,Sweden,269349
Nancy,48.6837,6.2,France,268976
Mokpo,34.8068,126.3958,"Korea, South",268402
Windhoek,-22.57,17.0835,Namibia,268132
Tebingtinggi,3.3304,99.13,Indonesia,268043
Yanbu al Bahr,24.0943,38.0493,Saudi Arabia,267590
Eugene,44.0563,-123.1173,United States,267568
Tshikapa,-6.41,20.77,Congo (Kinshasa),267462
Reading,40.34,-75.9266,United States,267300
Sterlitamak,53.63,55.96,Russia,267231
Padangsidempuan,1.3887,99.2734,Indonesia,266882
Myeik,12.4541,98.6115,Burma,266720
Temuco,-38.73,-72.58,Chile,265901
Lafayette,30.2083,-92.0322,United States,265746
Lausanne,46.5304,6.65,Switzerland,265702
Saint-Etienne,45.4304,4.38,France,265684
Petrozavodsk,61.85,34.28,Russia,265025
Imphal,24.8,93.95,India,264986
Umuahia,5.532,7.486,Nigeria,264662
Uruapan,19.4204,-102.07,Mexico,264531
Georgetown,6.802,-58.167,Guyana,264350
Sivas,39.7454,37.035,Turkey,264022
Tubruq,32.08,23.96,Libya,263527
Saint Petersburg,27.793,-82.6652,United States,263255
Graz,47.0778,15.41,Austria,263234
Kindu,-2.9639,25.91,Congo (Kinshasa),262914
Lubbock,33.5643,-101.8871,United States,262505
Aqtobe,50.28,57.17,Kazakhstan,262457
Parana,-31.7333,-60.5333,Argentina,262295
Az Aubayr,30.3892,47.708,Iraq,262219
Peoria,40.752,-89.6155,United States,262010
Hotan,37.0997,79.9269,China,261730
Cabo Frio,-22.89,-42.04,Brazil,261721
Balikesir,39.6504,27.89,Turkey,261516
Zhuanghe,39.6823,122.9619,China,261510
Sincelejo,9.2904,-75.38,Colombia,261187
Petrolina,-9.38,-40.51,Brazil,260985
Acarigua,9.5804,-69.2,Venezuela,260921
Wollongong,-34.4154,150.89,Australia,260914
Uberaba,-19.78,-47.95,Brazil,260843
Myrtle Beach,33.7096,-78.8843,United States,260487
Laredo,27.5616,-99.487,United States,260244
Adapazari,40.8,30.415,Turkey,260109
Konibodom,40.2922,70.4272,Tajikistan,259876
Salem,44.9232,-123.0245,United States,259816
Kondoz,36.728,68.8725,Afghanistan,259809
Tampere,61.5,23.75,Finland,259279
Columbus,32.51,-84.8771,United States,259160
Popayan,2.42,-76.61,Colombia,258750
Nonthaburi,13.8337,100.4833,Thailand,258550
Al Mukalla,14.5412,49.1259,Yemen,258132
Rio Branco,-9.9666,-67.8,Brazil,257642
Etawah,26.7855,79.015,India,257448
Mendefera,14.886,38.8163,Eritrea,257390
Cascavel,-24.9596,-53.46,Brazil,257172
Ondo,7.0904,4.84,Nigeria,257005
Chimoio,-19.12,33.47,Mozambique,256936
Ensenada,31.87,-116.62,Mexico,256565
Dzerzhinsk,56.2504,43.46,Russia,256537
Da Lat,11.9304,108.42,Vietnam,256019
Montgomery,32.347,-86.2663,United States,255908
Damaturu,11.749,11.966,Nigeria,255895
Raichur,16.2104,77.355,India,255240
Daloa,6.89,-6.45,Côte D’Ivoire,255168
Rivne,50.6166,26.2528,Ukraine,255106
Turpan,42.9354,89.165,China,254900
Freiburg,48.0004,7.8699,Germany,254889
Poza Rica de Hidalgo,20.5504,-97.47,Mexico,254481
Chuxiong,25.0364,101.5456,China,254370
Cirebon,-6.7333,108.5666,Indonesia,254298
Paramaribo,5.835,-55.167,Suriname,254169
Fort-de-France,14.6104,-61.08,Martinique,253995
Pathankot,32.2703,75.72,India,253987
Chandler,33.2827,-111.8516,United States,253458
Anchorage,61.1508,-149.1091,United States,253421
Tallahassee,30.455,-84.2526,United States,253030
Chirala,15.8604,80.34,India,253000
Buenaventura,3.8724,-77.0505,Colombia,252805
El Fasher,13.63,25.35,Sudan,252609
Dire Dawa,9.59,41.86,Ethiopia,252279
Suihua,46.6304,126.98,China,252245
Messina,38.2005,15.55,Italy,252026
Borujerd,33.92,48.8,Iran,251958
Linhai,28.85,121.12,China,251759
Khon Kaen,16.42,102.83,Thailand,251056
Morogoro,-6.82,37.66,Tanzania,250902
Governador Valadares,-18.87,-41.97,Brazil,250878
Sonipat,29,77.02,India,250521
Santa Clara,22.4,-79.9667,Cuba,250512
Iwo,7.63,4.18,Nigeria,250443
Concord,35.3933,-80.636,United States,250186
Jaffna,9.675,80.005,Sri Lanka,250000
Zumpango,19.8104,-99.11,Mexico,250000
Nis,43.3304,21.9,Serbia,250000
Arua,3.0204,30.9,Uganda,250000
Quang Ngai,15.1504,108.83,Vietnam,250000
Luzern,47.0504,8.28,Switzerland,250000
Laiyang,36.9684,120.7084,China,250000
Kashan,33.9804,51.58,Iran,250000
Como,45.81,9.08,Italy,250000
Caserta,41.06,14.3374,Italy,250000
Scottsdale,33.6872,-111.865,United States,249950
Varzea Grande,-15.65,-56.14,Brazil,249752
Kirovohrad,48.5041,32.2603,Ukraine,249454
Melun,48.5333,2.6666,France,249432
Mutare,-18.97,32.65,Zimbabwe,249365
Santa Maria,-29.6833,-53.8,Brazil,249219
Hafar al Batin,28.4337,45.9601,Saudi Arabia,249194
Los Mochis,25.79,-109,Mexico,249047
Jalal Abad,40.9429,73.0025,Kyrgyzstan,248899
Vung Tau,10.3554,107.085,Vietnam,248767
Fukui,36.0704,136.22,Japan,248707
Singkawang,0.912,108.9655,Indonesia,248012
Miskolc,48.1004,20.78,Hungary,247757
Killeen,31.0754,-97.7293,United States,247489
Plymouth,50.3854,-4.16,United Kingdom,247297
Udon Thani,17.4048,102.7893,Thailand,247231
Kattaqorgon,39.9007,66.2608,Uzbekistan,247113
Orsk,51.21,58.6273,Russia,246836
San Bernardo,-33.6,-70.7,Chile,246762
Glendale,33.5796,-112.2258,United States,246709
Oruro,-17.98,-67.13,Bolivia,246501
Bratsk,56.157,101.615,Russia,246348
Wilmington,34.21,-77.886,United States,245910
Matadi,-5.8166,13.45,Congo (Kinshasa),245862
Mirzapur,25.1454,82.57,India,245817
Shimonoseki,33.9654,130.9454,Japan,245786
Rzeszow,50.0705,22,Poland,245686
Juliaca,-15.5,-70.14,Peru,245675
Qinzhou,21.9504,108.62,China,245376
Winter Haven,28.0122,-81.7018,United States,245237
Nizhenvartovsk,60.935,76.58,Russia,244937
Ternopil,49.536,25.5821,Ukraine,244768
Braunschweig,52.25,10.5,Germany,244715
Norfolk,36.8945,-76.259,United States,244703
Hebi,35.9504,114.22,China,244662
Thu Dau Mot,10.9691,106.6527,Vietnam,244277
Gunsan,35.9818,126.716,"Korea, South",244080
Jessore,23.1704,89.2,Bangladesh,243987
Manisa,38.6304,27.44,Turkey,243971
Wonju,37.3551,127.9396,"Korea, South",243387
Nam Dinh,20.42,106.2,Vietnam,243186
Angarsk,52.56,103.92,Russia,243158
North Las Vegas,36.288,-115.0901,United States,242975
Hapur,28.7437,77.7628,India,242920
Gilbert,33.3103,-111.7463,United States,242354
Le Havre,49.505,0.105,France,242124
Caruaru,-8.28,-35.98,Brazil,242094
Neuquen,-38.95,-68.06,Argentina,242092
Ulanhot,46.08,122.08,China,241894
Novorossiysk,44.73,37.7699,Russia,241856
Tehuacan,18.4504,-97.38,Mexico,241429
Atlantic City,39.3797,-74.4527,United States,241363
Ivano-Frankivsk,48.9348,24.7094,Ukraine,241239
Linchuan,27.9703,116.36,China,241104
San Pablo,14.0696,121.3226,Philippines,240830
Chesapeake,36.6778,-76.3024,United States,240397
Irving,32.8584,-96.9702,United States,240373
Hialeah,25.8696,-80.3045,United States,239673
Hachinohe,40.51,141.54,Japan,239046
Garland,32.91,-96.6305,United States,238002
Furth,49.47,11,Germany,237844
As Sib,23.6802,58.1825,Oman,237816
Aarhus,56.1572,10.2107,Denmark,237551
Sasebo,33.1631,129.7177,Japan,237444
Al Jubayl,27.0046,49.646,Saudi Arabia,237274
Taiping,4.865,100.72,Malaysia,237095
Pathein,16.7704,94.75,Burma,237089
Tegal,-6.8696,109.12,Indonesia,237084
Zicheng,30.3004,111.5,China,237042
Sylhet,24.9036,91.8736,Bangladesh,237000
Oostanay,53.2209,63.6283,Kazakhstan,236901
Kosice,48.7304,21.25,Slovakia,236563
Monclova,26.9,-101.42,Mexico,236244
Tours,47.3804,0.6999,France,236096
Dera Ghazi Khan,30.0604,70.6351,Pakistan,236093
Springs,-26.2696,28.43,South Africa,236083
Luton,51.8804,-0.42,United Kingdom,235958
Sahiwal,30.6717,73.1118,Pakistan,235695
Oviedo,43.3505,-5.83,Spain,235651
Yakutsk,62.035,129.735,Russia,235600
Lubeck,53.8704,10.67,Germany,235390
Jizzax,40.1004,67.83,Uzbekistan,235352
Palmas,-10.2377,-48.2878,Brazil,235315
Boa Vista,2.8161,-60.666,Brazil,235150
Kediri,-7.7896,112,Indonesia,235143
McKinney,33.2016,-96.6669,United States,235134
Fremont,37.5265,-121.9852,United States,234962
Kismaayo,-0.3566,42.5183,Somalia,234852
Ibb,13.9759,44.1709,Yemen,234837
Turkmenabat,39.11,63.58,Turkmenistan,234817
Punto Fijo,11.72,-70.21,Venezuela,234736
Porbandar,21.67,69.67,India,234684
Visalia,36.3273,-119.3264,United States,234573
Zacatecas,22.7704,-102.58,Mexico,234481
Santa Ana,13.9946,-89.5598,El Salvador,234478
Santa Ana,-13.76,-65.58,Bolivia,234478
Singaraja,-8.1152,115.0944,Indonesia,234468
Dili,-8.5594,125.5795,Timor-Leste,234331
Nizhnekamsk,55.6404,51.82,Russia,234297
York,39.9651,-76.7315,United States,234245
Zabol,31.0215,61.4815,Iran,233968
Rancagua,-34.17,-70.74,Chile,233268
Clermont-Ferrand,45.78,3.08,France,233050
Kennewick,46.1979,-119.1732,United States,232915
Kremenchuk,49.0835,33.4296,Ukraine,232742
Maradi,13.4916,7.0964,Niger,232555
Ploiesti,44.9469,26.0365,Romania,232542
Nakhon Si Thammarat,8.4,99.97,Thailand,232335
Hetauda,27.4167,85.0334,Nepal,232334
Evansville,37.9882,-87.5339,United States,232285
Saidpur,25.8004,89,Bangladesh,232209
Al Fallujah,33.3477,43.7773,Iraq,231819
Shishou,29.7004,112.4,China,231787
Ngaoundere,7.3204,13.58,Cameroon,231357
Debrecen,47.5305,21.63,Hungary,231286
Osnabruck,52.2804,8.05,Germany,231268
Nashua,42.7491,-71.491,United States,231262
Hailar,49.2,119.7,China,231171
Syktyvkar,61.66,50.82,Russia,230910
Zhangye,38.93,100.45,China,230728
Ilheus,-14.78,-39.05,Brazil,230622
Santarem,-2.4333,-54.7,Brazil,230428
Zinder,13.8,8.9833,Niger,230358
Nukus,42.47,59.615,Uzbekistan,230006
Magdeburg,52.1304,11.62,Germany,229826
Tlimcen,34.8904,-1.32,Algeria,229777
Noginsk,55.8704,38.48,Russia,229731
Noginsk,64.4833,91.2333,Russia,229731
Nawabshah,26.2454,68.4,Pakistan,229504
Bharatpur,27.2504,77.5,India,229384
Uitenhage,-33.7596,25.39,South Africa,228912
Beipiao,41.81,120.76,China,228515
Er Rachidia,31.9404,-4.45,Morocco,228489
Petropavlovsk,54.88,69.22,Kazakhstan,228238
Miri,4.3999,113.9845,Malaysia,228212
Nassau,25.0834,-77.35,"Bahamas, The",227940
Brownsville,25.998,-97.4565,United States,227883
Iquique,-20.25,-70.13,Chile,227499
Hyeson,41.3927,128.1927,"Korea, North",227461
Pondicherry,11.935,79.83,India,227411
Quillacollo,-17.4,-66.28,Bolivia,227052
Starsy Oskol,51.3004,37.84,Russia,226977
Liaocheng,36.4304,115.97,China,226930
Gusau,12.1704,6.66,Nigeria,226857
Tanjungpinang,0.9168,104.4714,Indonesia,226666
Chon Buri,13.4004,101,Thailand,226618
Chuncheon,37.8747,127.7342,"Korea, South",226509
Monywa,22.105,95.15,Burma,226222
Sabzewar,36.22,57.63,Iran,226183
Groznyy,43.3187,45.6987,Russia,226100
Kolpino,59.73,30.65,Russia,225801
Sikasso,11.3204,-5.68,Mali,225753
Mubi,10.2703,13.27,Nigeria,225705
Novi Sad,45.2504,19.8499,Serbia,225457
Juazeiro do Norte,-7.21,-39.32,Brazil,225230
Nyanza,-2.3496,29.74,Rwanda,225209
Skikda,36.8804,6.9,Algeria,225181
Karnal,29.6804,76.97,India,225049
Bac Lieu,9.2804,105.72,Vietnam,225000
Matsumoto,36.2404,137.97,Japan,224926
Tanga,-5.07,39.09,Tanzania,224876
Sucre,-19.041,-65.2595,Bolivia,224838
Nacala,-14.5186,40.715,Mozambique,224795
Vitoria,42.85,-2.67,Spain,224578
Nagercoil,8.1804,77.43,India,224329
Nicosia,35.1667,33.3666,Cyprus,224300
Haeju,38.0394,125.7144,"Korea, North",224231
Adiyaman,37.7704,38.2799,Turkey,223744
Okara,30.8104,73.45,Pakistan,223648
Narayanganj,23.6204,90.5,Bangladesh,223622
Colima,19.23,-103.72,Mexico,223287
Appleton,44.2774,-88.3894,United States,222222
Hancheng,35.4704,110.43,China,222135
Arar,30.99,41.0207,Saudi Arabia,222016
Itabuna,-14.7896,-39.28,Brazil,221938
Banja Luka,44.7804,17.18,Bosnia And Herzegovina,221738
Gueckedou,8.554,-10.151,Guinea,221715
Neyshabur,36.22,58.82,Iran,221700
Amol,36.4713,52.3633,Iran,221650
Tapachula,14.9,-92.27,Mexico,221521
Formosa,-26.1728,-58.1828,Argentina,221383
Gulfport,30.4271,-89.0703,United States,221348
Shakhty,47.7204,40.27,Russia,221312
Blagoveshchensk,50.2666,127.5333,Russia,221296
Cordoba,18.9204,-96.92,Mexico,220563
Babruysk,53.1266,29.1928,Belarus,220517
Cabanatuan,15.5021,120.9617,Philippines,220250
Polokwane,-23.89,29.45,South Africa,220045
Lhasa,29.645,91.1,China,219599
Thanjavur,10.7704,79.15,India,219571
Gabes,33.9004,10.1,Tunisia,219517
Baghlan,36.1393,68.6993,Afghanistan,218748
Thousand Oaks,34.1914,-118.8755,United States,218729
Velikiy Novgorod,58.5,31.33,Russia,218717
Wuhai,39.6647,106.8122,China,218427
Dodoma,-6.1833,35.75,Tanzania,218269
Bertoua,4.5804,13.68,Cameroon,218111
Imperatriz,-5.52,-47.49,Brazil,218106
Potsdam,52.4004,13.07,Germany,218095
San Pedro de Macoris,18.4504,-69.3,Dominican Republic,217899
Mallawi,27.7304,30.84,Egypt,217365
Sibolga,1.75,98.8,Indonesia,217312
Orleans,47.9004,1.9,France,217301
Denow,38.2772,67.8872,Uzbekistan,217274
Avondale,33.3858,-112.3236,United States,217192
Colombo,6.932,79.8578,Sri Lanka,217000
San Bernardino,34.1412,-117.2936,United States,216995
Gilgit,35.9171,74.3,Pakistan,216760
Rybinsk,58.0503,38.82,Russia,216724
Groningen,53.2204,6.58,Netherlands,216688
Bremerton,47.5436,-122.7122,United States,216480
Roanoke,37.2785,-79.958,United States,216177
Trieste,45.6504,13.8,Italy,216035
Kielce,50.8904,20.66,Poland,215733
Mulhouse,47.7504,7.35,France,215454
Biysk,52.5341,85.18,Russia,215430
Hickory,35.7427,-81.3233,United States,215353
Owerri,5.493,7.026,Nigeria,215038
Zamora,19.9804,-102.28,Mexico,214947
Navoi,40.1104,65.355,Uzbekistan,214828
Split,43.5204,16.47,Croatia,214741
Kalamazoo,42.2749,-85.5881,United States,214083
Oradea,47.05,21.92,Romania,213830
Lutsk,50.7472,25.3334,Ukraine,213661
Portoviejo,-1.06,-80.46,Ecuador,213601
Bergen,60.391,5.3245,Norway,213585
Braila,45.292,27.969,Romania,213569
Tacoma,47.2431,-122.4531,United States,213418
Nanping,26.6304,118.17,China,213054
Machala,-3.26,-79.96,Ecuador,213034
Limbe,4.0304,9.19,Cameroon,212474
Marilia,-22.21,-49.95,Brazil,212218
Fontana,34.0968,-117.4599,United States,211815
Kirikkale,39.8504,33.53,Turkey,211138
Abha,18.2301,42.5001,Saudi Arabia,210886
San-Pedro,4.7704,-6.64,Côte D’Ivoire,210273
Toamasina,-18.1818,49.405,Madagascar,210226
Pali,25.7904,73.3299,India,210103
Thai Binh,20.4503,106.333,Vietnam,210000
Oral,51.2711,51.335,Kazakhstan,209788
Presidente Prudente,-22.12,-51.39,Brazil,209502
Sanming,26.23,117.58,China,209444
Rennes,48.1,-1.67,France,209375
Ijebu Ode,6.8204,3.92,Nigeria,209175
Tema,5.6404,0.01,Ghana,209000
Santander,43.3805,-3.8,Spain,208763
Green Bay,44.515,-87.9896,United States,208625
Sidi bel Abbes,35.1903,-0.64,Algeria,208604
Bojnurd,37.47,57.32,Iran,208582
La Romana,18.417,-68.9666,Dominican Republic,208437
Gaborone,-24.6463,25.9119,Botswana,208411
Hajjah,15.6917,43.6021,Yemen,208287
Waitakere,-36.8524,174.5543,New Zealand,208100
Lobito,-12.37,13.5412,Angola,207932
College Station,30.5852,-96.296,United States,207308
Pingliang,35.5304,106.6801,China,207256
Moreno Valley,33.9244,-117.2045,United States,207226
Laoag,18.1988,120.5936,Philippines,207048
Bahir Dar,11.6001,37.3833,Ethiopia,206748
Yamoussoukro,6.8184,-5.2755,Côte D’Ivoire,206499
Beer Sheva,31.25,34.83,Israel,206408
Korla,41.73,86.15,China,206373
Salzburg,47.8105,13.04,Austria,206279
Kalemie,-5.9333,29.2,Congo (Kinshasa),206257
Amarillo,35.1988,-101.8308,United States,206072
Portland,43.6773,-70.2715,United States,206023
North Shore,-36.7913,174.7758,New Zealand,205605
Jiutai,44.1447,125.8443,China,205399
Campeche,19.83,-90.5,Mexico,205212
Puqi,29.7204,113.88,China,205164
Sao Carlos,-22.02,-47.89,Brazil,205035
Fargo,46.8653,-96.8292,United States,204820
Funchal,32.65,-16.88,Portugal,204767
Criciuma,-28.68,-49.39,Brazil,204217
Lampang,18.2916,99.4813,Thailand,204081
Santa Barbara,34.4285,-119.7202,United States,204034
Colon,9.365,-79.875,Panama,204000
Norwich,41.5495,-72.0882,United States,203916
Salalah,17.0255,54.0852,Oman,203877
Sibu,2.303,111.843,Malaysia,203832
Las Tunas,20.9601,-76.9544,Cuba,203684
Lianxian,24.7815,112.3825,China,203639
Guaratingueta,-22.82,-45.19,Brazil,203580
Pisa,43.7205,10.4,Italy,203336
Agartala,23.8354,91.28,India,203264
Erfurt,50.9701,11.03,Germany,203254
Timon,-5.115,-42.845,Brazil,203157
Edea,3.8005,10.12,Cameroon,203149
Rostock,54.0704,12.15,Germany,203080
Glendale,34.1818,-118.2468,United States,203054
Ongole,15.5604,80.05,India,202860
Djougou,9.7004,1.68,Benin,202810
Khvoy,38.5304,44.97,Iran,202728
Mossoro,-5.19,-37.34,Brazil,202583
Barisal,22.7004,90.375,Bangladesh,202242
Biskra,34.86,5.73,Algeria,202103
Angren,41.0304,70.1549,Uzbekistan,202070
Taranto,40.5084,17.23,Italy,202033
Yonkers,40.9466,-73.8674,United States,202019
Pskov,57.83,28.3299,Russia,201990
Al Khums,32.6604,14.26,Libya,201943
Minatitlan,17.9805,-94.53,Mexico,201902
Huntington Beach,33.696,-118.0025,United States,201874
Chiniot,31.72,72.98,Pakistan,201781
Pingzhen,24.9439,121.2161,Taiwan,201632
San Miguel,13.4833,-88.1833,El Salvador,201563
Lashkar Gah,31.583,64.36,Afghanistan,201546
Dasoguz,41.84,59.965,Turkmenistan,201424
Sete Lagoas,-19.4496,-44.25,Brazil,201334
Gedaref,14.04,35.38,Sudan,201282
Cartagena,37.6004,-0.98,Spain,201274
Puri,19.8204,85.9,India,201026
Aurora,41.7638,-88.2901,United States,200965
Dindigul,10.38,78,India,200797
Haldia,22.0257,88.0583,India,200762
Kasama,-10.1996,31.1799,Zambia,200000
Moratuwa,6.7804,79.88,Sri Lanka,200000
Az Zawiyah,32.7604,12.72,Libya,200000
Nema,16.6171,-7.25,Mauritania,200000
Pokhara,28.264,83.972,Nepal,200000
Zhubei,24.8333,121.0119,Taiwan,200000
Rivera,-30.8996,-55.56,Uruguay,200000
Bergamo,45.7004,9.67,Italy,200000
Meymaneh,35.9302,64.7701,Afghanistan,199795
Gainesville,29.6808,-82.3455,United States,199695
Bacau,46.5784,26.9196,Romania,199668
Taza,34.2204,-4.02,Morocco,199633
Batu Pahat,1.8504,102.9333,Malaysia,199619
Balakovo,52.03,47.8,Russia,199572
Armavir,45.0004,41.13,Russia,199548
Rashid,31.4604,30.39,Egypt,199509
Bila Tserkva,49.7743,30.1309,Ukraine,199163
Saskatoon,52.17,-106.67,Canada,198958
Aydin,37.85,27.85,Turkey,198857
Huangyan,28.65,121.25,China,198713
Bulandshahr,28.4104,77.8484,India,198612
Kushiro,42.975,144.3747,Japan,198566
Purnia,25.7854,87.48,India,198453
Martapura,-3.4135,114.8365,Indonesia,198239
Gemena,3.26,19.77,Congo (Kinshasa),198056
Thanh Hoa,19.82,105.8,Vietnam,197551
Mbanza-Ngungu,-5.2496,14.86,Congo (Kinshasa),197545
Kofu,35.6504,138.5833,Japan,197540
Salamanca,20.5704,-101.2,Mexico,197524
Talca,-35.455,-71.67,Chile,197479
Proddatur,14.7504,78.57,India,197451
El Tigre,8.8903,-64.26,Venezuela,197440
Gurgaon,28.45,77.02,India,197340
Burhanpur,21.3004,76.13,India,197233
Kure,34.251,132.5656,Japan,196991
Cartago,9.87,-83.93,Costa Rica,196946
Porlamar,10.9604,-63.85,Venezuela,196934
Reims,49.2504,4.03,France,196565
Olympia,47.0418,-122.8959,United States,196078
Engels,51.5004,46.12,Russia,196011
North Port,27.0577,-82.1976,United States,195992
Burgas,42.5146,27.4746,Bulgaria,195966
Gandhinagar,23.3004,72.6399,India,195891
Iskandar,41.5507,69.6807,Uzbekistan,195633
Nagaoka,37.4504,138.86,Japan,195318
Coro,11.42,-69.68,Venezuela,195227
Brikama,13.2804,-16.6599,"Gambia, The",195136
Severodvinsk,64.57,39.83,Russia,194292
Al Jahra,29.3375,47.6581,Kuwait,194193
Huntington,38.4109,-82.4344,United States,194155
Deltona,28.905,-81.2136,United States,194061
Bongor,10.2859,15.3872,Chad,193941
Grand Prairie,32.6869,-97.0209,United States,193837
Divinopolis,-20.1495,-44.9,Brazil,193832
Salinas,36.6881,-121.6316,United States,193590
Tarakan,3.3,117.633,Indonesia,193069
Machilipatnam,16.2004,81.18,India,192827
Oxford,51.7704,-1.25,United Kingdom,192796
Ciudad Madero,22.3189,-97.8361,Mexico,192736
Bayamo,20.3795,-76.6433,Cuba,192632
Klaipeda,55.7204,21.1199,Lithuania,192307
Dunhua,43.3505,128.22,China,191870
Ziguinchor,12.59,-16.29,Senegal,191716
Waterbury,41.5583,-73.0361,United States,191484
Barrancabermeja,7.09,-73.85,Colombia,191403
Zlatoust,55.175,59.65,Russia,191366
Muar,2.0337,102.5666,Malaysia,191346
Overland Park,38.887,-94.687,United States,191278
Dhamar,14.5575,44.3875,Yemen,191259
Valera,9.32,-70.62,Venezuela,191167
Bridgetown,13.102,-59.6165,Barbados,191152
Bhiwani,28.81,76.125,India,190855
Norwich,52.6304,1.3,United Kingdom,190756
Butuan,8.9495,125.5436,Philippines,190557
Caen,49.1838,-0.35,France,190099
St.-Denis,-20.8789,55.4481,Reunion,190047
Sadiqabad,28.3006,70.1302,Pakistan,189876
La Paz,24.14,-110.32,Mexico,189767
Son Tay,21.1382,105.505,Vietnam,189547
Aberdeen,57.1704,-2.08,United Kingdom,189364
Syzran,53.17,48.48,Russia,189338
Dong Hoi,17.4833,106.6,Vietnam,189265
Mwene-Ditu,-7,23.44,Congo (Kinshasa),189177
Kabwe,-14.44,28.45,Zambia,188979
Quelimane,-17.88,36.89,Mozambique,188964
Cork,51.8986,-8.4958,Ireland,188907
Parakou,9.34,2.62,Benin,188853
Catamarca,-28.47,-65.78,Argentina,188812
Nandyal,15.5204,78.48,India,188654
Waco,31.5597,-97.1883,United States,188448
Angers,47.48,-0.53,France,188380
Mostaganem,35.9404,0.09,Algeria,188354
Erie,42.1168,-80.0733,United States,188079
Paarl,-33.6996,18.96,South Africa,187865
Rio Grande,-32.0495,-52.12,Brazil,187838
Szeged,46.2504,20.15,Hungary,187765
Arapiraca,-9.75,-36.67,Brazil,187668
Ternate,0.793,127.363,Indonesia,187521
Petropavlovsk Kamchatskiy,53.062,158.623,Russia,187282
Kimchaek,40.6723,129.2027,"Korea, North",187270
Puerto Vallarta,20.6771,-105.245,Mexico,187134
Gibraltar,36.1324,-5.3781,Gibraltar,187083
Cachoeiro de Itapemirim,-20.85,-41.13,Brazil,187019
Pinar del Rio,22.4175,-83.6981,Cuba,186990
Manpo,41.1454,126.2958,"Korea, North",186827
Olsztyn,53.8,20.48,Poland,186670
San Cristobal de Las Casas,16.75,-92.6334,Mexico,186661
Cienfuegos,22.1444,-80.4403,Cuba,186644
Shendi,16.6805,33.42,Sudan,186611
Pecs,46.0804,18.22,Hungary,186262
Cedar Rapids,41.9667,-91.6782,United States,186160
Marbella,36.5166,-4.8833,Spain,186131
Madiun,-7.6346,111.515,Indonesia,186099
Ad Damazin,11.7704,34.35,Sudan,186051
Arica,-18.5,-70.29,Chile,185999
Hagerstown,39.6401,-77.7217,United States,185704
Jamaame,0.0722,42.7506,Somalia,185270
Tempe,33.3881,-111.9318,United States,185038
Kutahya,39.42,29.93,Turkey,185008
Yei,4.0904,30.68,South Sudan,185000
Mainz,49.9825,8.2732,Germany,184997
Ruse,43.8537,25.9733,Bulgaria,184270
Tiarat,35.3804,1.32,Algeria,184195
Fianarantsoa,-21.4333,47.0833,Madagascar,184184
Kramatorsk,48.7194,37.5344,Ukraine,184105
Kutaisi,42.25,42.73,Georgia,183945
Tarlac,15.4838,120.5834,Philippines,183930
Dese,11.13,39.63,Ethiopia,183802
Corum,40.52,34.95,Turkey,183418
Gweru,-19.45,29.82,Zimbabwe,183358
Mataro,41.54,2.45,Spain,183293
Spartanburg,34.9437,-81.9257,United States,183184
Manta,-0.98,-80.73,Ecuador,183166
Bhusawal,21.02,75.83,India,183001
Shibin el Kom,30.592,30.9,Egypt,182900
Clarksville,36.5696,-87.3428,United States,182849
Atyrau,47.1127,51.92,Kazakhstan,182753
Pinrang,-3.7857,119.6522,Indonesia,182731
Kamensk Uralskiy,56.4205,61.935,Russia,182500
Chilpancingo,17.55,-99.5,Mexico,182387
Biratnagar,26.4837,87.2833,Nepal,182324
Bahraich,27.6204,81.6699,India,182218
Barrie,44.3838,-79.7,Canada,182041
Chingola,-12.5396,27.85,Zambia,182015
Tonk,26.1505,75.79,India,181734
Probolinggo,-7.7496,113.15,Indonesia,181656
Sirsa,29.4904,75.03,India,181639
Anda,46.4,125.32,China,181533
Gastonia,35.2494,-81.1855,United States,180974
Hinthada,17.6483,95.4679,Burma,180728
Gangneung,37.7559,128.8962,"Korea, South",180611
Castello,39.9704,-0.05,Spain,180610
Funtua,11.5204,7.32,Nigeria,180475
El Jadida,33.2604,-8.51,Morocco,180470
Reggio di Calabria,38.115,15.6414,Italy,180353
Zuwarah,32.9344,12.0791,Libya,180310
Lorain,41.4409,-82.184,United States,180239
Sioux Falls,43.5397,-96.7322,United States,180204
Rio Claro,-22.41,-47.56,Brazil,180147
Tangail,24.25,89.92,Bangladesh,180144
Obuasi,6.1904,-1.66,Ghana,180117
Fort Lauderdale,26.1412,-80.1464,United States,180072
Zhaodong,46.0804,125.98,China,179980
Balkh,36.7501,66.8997,Afghanistan,179969
Potosi,-19.5696,-65.75,Bolivia,179901
Phan Rang,11.567,108.9833,Vietnam,179773
Varamin,35.3166,51.6466,Iran,179603
Passo Fundo,-28.25,-52.42,Brazil,179529
Almeria,36.8303,-2.43,Spain,179405
Newport News,37.1051,-76.5185,United States,179388
Vizianagaram,18.1204,83.5,India,179358
Sittwe,20.14,92.88,Burma,179032
Klerksdorp,-26.88,26.62,South Africa,178921
Si Racha,13.159,100.9287,Thailand,178916
Mary,37.6,61.8333,Turkmenistan,178708
El Arish,31.1249,33.8006,Egypt,178651
Boma,-5.83,13.05,Congo (Kinshasa),178638
Sangolqui,-0.31,-78.46,Ecuador,178582
Nogales,31.305,-110.945,Mexico,178097
High Point,35.9902,-79.9938,United States,177874
Teziutlan,19.8204,-97.36,Mexico,177796
Korhogo,9.46,-5.64,Côte D’Ivoire,177711
Termiz,37.2329,67.2729,Uzbekistan,177687
Ar Raqqah,35.9304,39.02,Syria,177636
Santa Cruz,36.9788,-122.0346,United States,177556
El Oued,33.3704,6.86,Algeria,177497
Rancho Cucamonga,34.1247,-117.5664,United States,177452
Treviso,45.67,12.24,Italy,177309
Frisco,33.1553,-96.8218,United States,177286
Danbury,41.4016,-73.471,United States,177177
Vellore,12.9204,79.15,India,177081
Kadugli,11.01,29.7,Sudan,176931
Hemet,33.7341,-116.9969,United States,176892
Nyiregyhaza,47.9653,21.7187,Hungary,176880
Alappuzha,9.5004,76.37,India,176783
Malayer,34.32,48.85,Iran,176573
Letpadan,17.7819,95.7415,Burma,176571
Yuzhno Sakhalinsk,46.965,142.74,Russia,176484
Ouargla,31.97,5.34,Algeria,176271
Oceanside,33.2247,-117.3083,United States,176193
Regina,50.45,-104.617,Canada,176183
Salatiga,-7.3095,110.4901,Indonesia,176000
Turku,60.4539,22.255,Finland,175945
Ontario,34.0393,-117.6064,United States,175841
Vancouver,45.6352,-122.597,United States,175673
Saveh,35.0218,50.3314,Iran,175533
Modena,44.65,10.92,Italy,175502
Les Cayes,18.2004,-73.75,Haiti,175457
Suva,-18.133,178.4417,Fiji,175399
Bose,23.8997,106.6133,China,175282
Entebbe,0.0604,32.46,Uganda,175128
Yangmei,24.9167,121.15,Taiwan,175000
Taitung,22.7554,121.14,Taiwan,175000
Sirjan,29.47,55.73,Iran,175000
Harar,9.32,42.15,Ethiopia,174994
As Samawah,31.3099,45.2803,Iraq,174978
Hirosaki,40.57,140.47,Japan,174972
Tomakomai,42.6504,141.55,Japan,174806
Puerto Montt,-41.47,-72.93,Chile,174629
George,-33.95,22.45,South Africa,174582
Bo,7.97,-11.74,Sierra Leone,174354
Garden Grove,33.7787,-117.9601,United States,174226
Puerto Cabello,10.4704,-68.17,Venezuela,174000
Saida,33.563,35.3688,Lebanon,173894
Obihiro,42.9304,143.17,Japan,173890
Nampa,43.5843,-116.5626,United States,173863
Bida,9.0804,6.01,Nigeria,173849
Vallejo,38.1133,-122.2359,United States,173844
Simla,31.1,77.1666,India,173503
Stavanger,58.97,5.68,Norway,173132
Esmeraldas,0.9304,-79.67,Ecuador,173101
Bata,1.87,9.77,Equatorial Guinea,173046
Ulm,48.4004,10,Germany,172955
Hong Gai,20.9604,107.1,Vietnam,172915
Lishui,28.4504,119.9,China,172777
Riobamba,-1.67,-78.65,Ecuador,172464
Banyuwangi,-8.195,114.3696,Indonesia,172424
Isparta,37.77,30.53,Turkey,172334
Weinan,34.5004,109.5001,China,172321
Bade,24.9575,121.2989,Taiwan,172065
Nova Friburgo,-22.26,-42.54,Brazil,171991
Elk Grove,38.416,-121.384,United States,171844
Tebessa,35.4104,8.12,Algeria,171742
Kragujevac,44.02,20.92,Serbia,171197
Pitesti,44.8563,24.8758,Romania,171021
Rijeka,45.33,14.45,Croatia,170992
Djelfa,34.68,3.25,Algeria,170901
Pembroke Pines,26.0128,-80.3387,United States,170712
Temirtau,50.065,72.965,Kazakhstan,170600
Uvira,-3.37,29.14,Congo (Kinshasa),170391
Burgos,42.3504,-3.68,Spain,170183
Takaoka,36.67,137,Japan,170077
Aracatuba,-21.21,-50.45,Brazil,170024
Fuyang,32.9004,115.82,China,170023
Cacak,43.8897,20.3301,Serbia,170000
Dijon,47.3304,5.03,France,169946
Keluang,2.0383,103.3179,Malaysia,169828
Nimes,43.8304,4.35,France,169547
Al Marj,32.5005,20.83,Libya,169540
Barra Mansa,-22.56,-44.17,Brazil,169386
Jayapura,-2.533,140.7,Indonesia,169341
Sarh,9.15,18.39,Chad,169196
Medinipur,22.3304,87.15,India,169127
Arad,46.17,21.32,Romania,169065
Bandar-e Bushehr,28.92,50.83,Iran,169060
Sonsonate,13.72,-89.73,El Salvador,168947
Baranavichy,53.1368,26.0134,Belarus,168772
Atbara,17.71,33.98,Sudan,168612
Wurzburg,49.8004,9.95,Germany,168561
Hindupur,13.7804,77.49,India,168312
Medford,42.3372,-122.8537,United States,168219
Peoria,33.7844,-112.2989,United States,168181
Nzerekore,7.76,-8.83,Guinea,168121
Baramula,34.2004,74.35,India,167986
Jamalpur,24.9004,89.95,Bangladesh,167900
Chirchiq,41.455,69.56,Uzbekistan,167842
Corona,33.862,-117.5644,United States,167836
Berezniki,59.42,56.76,Russia,167748
Volgodonsk,47.51,42.1599,Russia,167731
Ormac,11.0643,124.6075,Philippines,167584
Miass,54.9954,60.0949,Russia,167500
Oldenburg,53.13,8.22,Germany,167458
Abakan,53.7037,91.445,Russia,167289
Murfreesboro,35.8493,-86.4098,United States,167055
Benha,30.4667,31.1833,Egypt,167029
Novocherkassk,47.42,40.08,Russia,166974
Gonaives,19.4504,-72.6832,Haiti,166678
Marysville,48.0809,-122.1558,United States,166541
Fatehpur,25.8804,80.8,India,166480
Dibrugarh,27.4833,94.9,India,166366
Ayacucho,-13.175,-74.22,Peru,166314
Reykjavik,64.15,-21.95,Iceland,166212
Maraba,-5.35,-49.116,Brazil,166182
Ocumare del Tuy,10.12,-66.78,Venezuela,166072
San Fernando,10.2805,-61.4594,Trinidad And Tobago,166039
Parma,44.8104,10.32,Italy,166011
Rustenburg,-25.65,27.24,South Africa,165976
Cary,35.7814,-78.8167,United States,165904
Norilsk,69.34,88.225,Russia,165873
Carpina,-7.84,-35.26,Brazil,165579
Tulua,4.0904,-76.21,Colombia,165501
Livingstone,-17.86,25.86,Zambia,165480
Ha Tinh,18.3338,105.9,Vietnam,165396
Kendari,-3.9553,122.5973,Indonesia,165377
Kimberley,-28.7468,24.77,South Africa,165264
Elbasan,41.1215,20.0838,Albania,165010
Nantou,23.9167,120.6833,Taiwan,165000
Fredericksburg,38.2992,-77.4872,United States,164976
Serang,-6.11,106.1496,Indonesia,164767
Ocala,29.1803,-82.1495,United States,164712
Lajes,-27.8096,-50.31,Brazil,164676
Leon,12.4356,-86.8794,Nicaragua,164441
Sitapur,27.63,80.75,India,164435
Zenica,44.22,17.92,Bosnia And Herzegovina,164423
Regensburg,49.0204,12.12,Germany,164359
Kigoma,-4.8796,29.61,Tanzania,164268
Pizen,49.7404,13.36,Czechia,164180
Phitsanulok,16.8283,100.2729,Thailand,164017
Myingyan,21.4618,95.3914,Burma,163812
Dagupan,16.0479,120.3408,Philippines,163676
Patra,38.23,21.73,Greece,163360
Ingolstadt,48.7704,11.45,Germany,163325
La Vega,19.2166,-70.5166,Dominican Republic,163197
Mostar,43.3505,17.82,Bosnia And Herzegovina,163067
Navsari,20.8504,72.92,India,163000
Geneina,13.45,22.44,Sudan,162981
Tartus,34.8846,35.8866,Syria,162980
Simao,22.7807,100.9782,China,162725
La Rioja,-29.41,-66.85,Argentina,162620
Lecce,40.3604,18.15,Italy,162582
Mahabad,36.7704,45.72,Iran,162434
Salamanca,40.9704,-5.67,Spain,162353
Dourados,-22.23,-54.81,Brazil,162202
Ash Shatrah,31.4175,46.1772,Iraq,161949
Settat,33.0104,-7.62,Morocco,161748
Budaun,28.03,79.09,India,161555
Tunja,5.5504,-73.37,Colombia,161412
Coquimbo,-29.9529,-71.3436,Chile,161317
Rubtsovsk,51.52,81.21,Russia,161065
Bhisho,-32.87,27.39,South Africa,160997
Geelong,-38.1675,144.3956,Australia,160991
Ras al Khaymah,25.7915,55.9428,United Arab Emirates,160849
Sullana,-4.8896,-80.68,Peru,160789
Malakal,9.5369,31.656,South Sudan,160765
Manchester,42.9848,-71.4447,United States,160742
Bumba,2.19,22.46,Congo (Kinshasa),160539
Hayward,37.6328,-122.0772,United States,160500
Xiaogan,30.9204,113.9,China,160437
Xapeco,-27.1,-52.64,Brazil,160157
Muskegon,43.2281,-86.2562,United States,160142
Taunggyi,20.782,97.038,Burma,160115
Lazaro Cardenas,17.9587,-102.2,Mexico,160087
Alexandria,38.8185,-77.0861,United States,160035
Gonbad-e Kavus,37.2518,55.1715,Iran,159982
Salavat,53.3703,55.93,Russia,159893
Valdivia,-39.795,-73.245,Chile,159599
Pagadian,7.853,123.507,Philippines,159590
Nakhodka,42.8374,132.8874,Russia,159551
Nakhodka,67.7504,77.52,Russia,159551
Springfield,39.7712,-89.6539,United States,159394
Lafayette,40.3991,-86.8594,United States,159293
Tarija,-21.5167,-64.75,Bolivia,159269
Zarzis,33.5104,11.1,Tunisia,159161
Punta del Este,-34.97,-54.95,Uruguay,159000
York,53.9704,-1.08,United Kingdom,158947
Cuddalore,11.7204,79.77,India,158569
Rio Largo,-9.48,-35.84,Brazil,158545
Samarra,34.194,43.875,Iraq,158508
Maykop,44.61,40.12,Russia,158451
Abeche,13.84,20.83,Chad,158317
Barreiras,-12.14,-45,Brazil,158292
Odense,55.4004,10.3833,Denmark,158222
Huanuco,-9.92,-76.24,Peru,158145
Hoshiarpur,31.52,75.98,India,158142
Albacete,39.0003,-1.87,Spain,158094
Melitopol,46.8378,35.3775,Ukraine,158000
Sobral,-3.69,-40.35,Brazil,157996
Port Arthur,29.8554,-93.9264,United States,157934
Sudbury,46.5,-80.9666,Canada,157857
Surat Thani,9.1501,99.3401,Thailand,157627
Palmdale,34.5944,-118.1057,United States,157519
Hurghada,27.23,33.83,Egypt,157204
Isiro,2.76,27.62,Congo (Kinshasa),157196
Puerto Princesa,9.7543,118.7444,Philippines,157144
Kashmar,35.1814,58.4515,Iran,157135
Ussuriysk,43.8,132.02,Russia,157068
Rustavi,41.5704,45.05,Georgia,157063
Tiraspol,46.8531,29.64,Moldova,157000
Afyon,38.7504,30.55,Turkey,156992
Zonguldak,41.4304,31.78,Turkey,156918
Matsue,35.467,133.0666,Japan,156811
Champaign,40.1144,-88.2735,United States,156794
Moundou,8.55,16.09,Chad,156705
Dali,25.7,100.18,China,156685
Koforidua,6.0904,-0.26,Ghana,156653
Uroteppa,39.9219,69.0015,Tajikistan,156621
Livorno,43.5511,10.3023,Italy,156274
Gainesville,34.2901,-83.8301,United States,156248
Gonder,12.61,37.46,Ethiopia,156230
Ciudad del Carmen,18.6537,-91.8245,Mexico,156195
Malabo,3.75,8.7833,Equatorial Guinea,155963
Yulin,38.2833,109.7333,China,155960
Shkoder,42.0685,19.5188,Albania,155767
Muroran,42.35,140.98,Japan,155676
Sibiu,45.7971,24.1371,Romania,155565
Batumi,41.6,41.63,Georgia,155542
Barysaw,54.226,28.4922,Belarus,155389
Gyeongju,35.8428,129.2117,"Korea, South",155237
Innsbruck,47.2804,11.41,Austria,155214
Foggia,41.4605,15.56,Italy,155203
Ordu,41.0004,37.8699,Turkey,155117
Kanchipuram,12.8337,79.7167,India,155029
Frederick,39.4335,-77.4157,United States,154972
Lakewood,39.6978,-105.1168,United States,154958
Sariwon,38.507,125.762,"Korea, North",154942
Beian,48.239,126.482,China,154936
Battambang,13.1,103.2,Cambodia,154773
Guangshui,31.6204,114,China,154771
Middelburg,-25.7596,29.47,South Africa,154706
Mahajanga,-15.67,46.345,Madagascar,154657
La Serena,-29.9,-71.25,Chile,154521
Chetumal,18.5,-88.3,Mexico,154517
Gandajika,-6.7396,23.96,Congo (Kinshasa),154425
Pathum Thani,14.0171,100.5333,Thailand,154412
Cairns,-16.8878,145.7633,Australia,154225
Kovrov,56.3604,41.33,Russia,154224
Tuscaloosa,33.2349,-87.5267,United States,154204
Osorno,-40.57,-73.16,Chile,154131
Tottori,35.5004,134.2333,Japan,154098
San Cristobal,18.416,-70.109,Dominican Republic,154040
Lemosos,34.6754,33.0333,Cyprus,154000
Moanda,-5.9229,12.355,Congo (Kinshasa),153915
Rio Cuarto,-33.13,-64.35,Argentina,153757
Masjed Soleyman,31.98,49.2999,Iran,153663
Sunnyvale,37.3835,-122.0257,United States,153656
Lake Charles,30.203,-93.215,United States,153633
Hollywood,26.0293,-80.1678,United States,153627
Mufulira,-12.55,28.26,Zambia,153624
Pasadena,29.6584,-95.1499,United States,153520
Chincha Alta,-13.4196,-76.14,Peru,153076
Faizabad,26.7504,82.17,India,153047
Pomona,34.0585,-117.7625,United States,152939
Kansas City,39.1234,-94.7443,United States,152938
Dingzhou,38.5004,115,China,152934
Rondonopolis,-16.4695,-54.64,Brazil,152912
Ilam,33.6304,46.43,Iran,152894
Usak,38.6804,29.42,Turkey,152862
Nusaybin,37.075,41.2184,Turkey,152668
San Francisco de Macoris,19.3,-70.25,Dominican Republic,152538
